[{"code_country": 57, "country": "Colombia", "code_administrative_area_level_1": "5", "administrative_area_level_1": "Antioquia", "code_locality": "5001", "locality": "Medell\u00edn", "google": {"address_components": [{"long_name": "Medell\u00edn", "short_name": "Medell\u00edn", "types": ["locality", "political"]}, {"long_name": "Medellin", "short_name": "Medellin", "types": ["administrative_area_level_2", "political"]}, {"long_name": "Antioquia", "short_name": "Antioquia", "types": ["administrative_area_level_1", "political"]}, {"long_name": "Colombia", "short_name": "CO", "types": ["country", "political"]}], "formatted_address": "Medell\u00edn, Medellin, Antioquia, Colombia", "geometry": {"bounds": {"northeast": {"lat": 6.31281, "lng": -75.521507}, "southwest": {"lat": 6.1755969, "lng": -75.64091599999999}}, "location": {"lat": 6.2476376, "lng": -75.56581530000001}, "location_type": "APPROXIMATE", "viewport": {"northeast": {"lat": 6.31281, "lng": -75.521507}, "southwest": {"lat": 6.1755969, "lng": -75.64091599999999}}}, "place_id": "ChIJBa0PuN8oRI4RVju1x_x8E0I", "types": ["locality", "political"]}}, {"code_country": 57, "country": "Colombia", "code_administrative_area_level_1": "5", "administrative_area_level_1": "Antioquia", "code_locality": "5002", "locality": "Abejorral", "google": {"address_components": [{"long_name": "Abejorral", "short_name": "Abejorral", "types": ["locality", "political"]}, {"long_name": "Abejorral", "short_name": "Abejorral", "types": ["administrative_area_level_2", "political"]}, {"long_name": "Antioquia", "short_name": "Antioquia", "types": ["administrative_area_level_1", "political"]}, {"long_name": "Colombia", "short_name": "CO", "types": ["country", "political"]}, {"long_name": "055030", "short_name": "055030", "types": ["postal_code"]}], "formatted_address": "Abejorral, Antioquia, Colombia", "geometry": {"bounds": {"northeast": {"lat": 5.7957851, "lng": -75.4232169}, "southwest": {"lat": 5.7816021, "lng": -75.4339901}}, "location": {"lat": 5.788692999999999, "lng": -75.428603}, "location_type": "APPROXIMATE", "viewport": {"northeast": {"lat": 5.7957851, "lng": -75.4232169}, "southwest": {"lat": 5.7816021, "lng": -75.4339901}}}, "place_id": "ChIJJyE7HVbpRo4RXp6wxTydi-U", "types": ["locality", "political"]}}, {"code_country": 57, "country": "Colombia", "code_administrative_area_level_1": "5", "administrative_area_level_1": "Antioquia", "code_locality": "5004", "locality": "Abriaqu\u00ed", "google": {"address_components": [{"long_name": "Abriaqu\u00ed", "short_name": "Abriaqu\u00ed", "types": ["locality", "political"]}, {"long_name": "Abriaqu\u00ed", "short_name": "Abriaqu\u00ed", "types": ["administrative_area_level_2", "political"]}, {"long_name": "Antioquia", "short_name": "Antioquia", "types": ["administrative_area_level_1", "political"]}, {"long_name": "Colombia", "short_name": "CO", "types": ["country", "political"]}], "formatted_address": "Abriaqu\u00ed, Antioquia, Colombia", "geometry": {"bounds": {"northeast": {"lat": 6.639050999999999, "lng": -76.0605171}, "southwest": {"lat": 6.630059999999999, "lng": -76.070962}}, "location": {"lat": 6.634555, "lng": -76.06573999999999}, "location_type": "APPROXIMATE", "viewport": {"northeast": {"lat": 6.639050999999999, "lng": -76.0605171}, "southwest": {"lat": 6.630059999999999, "lng": -76.070962}}}, "place_id": "ChIJ4yC8DQu-RY4R2PEC6XxERVA", "types": ["locality", "political"]}}, {"code_country": 57, "country": "Colombia", "code_administrative_area_level_1": "5", "administrative_area_level_1": "Antioquia", "code_locality": "5021", "locality": "Alejandr\u00eda", "google": {"address_components": [{"long_name": "Alejandr\u00eda", "short_name": "Alejandr\u00eda", "types": ["locality", "political"]}, {"long_name": "Alejandr\u00eda", "short_name": "Alejandr\u00eda", "types": ["administrative_area_level_2", "political"]}, {"long_name": "Antioquia", "short_name": "Antioquia", "types": ["administrative_area_level_1", "political"]}, {"long_name": "Colombia", "short_name": "CO", "types": ["country", "political"]}], "formatted_address": "Alejandr\u00eda, Antioquia, Colombia", "geometry": {"bounds": {"northeast": {"lat": 6.380298, "lng": -75.13869199999999}, "southwest": {"lat": 6.369462899999999, "lng": -75.1445821}}, "location": {"lat": 6.37488, "lng": -75.141637}, "location_type": "APPROXIMATE", "viewport": {"northeast": {"lat": 6.380298, "lng": -75.13869199999999}, "southwest": {"lat": 6.369462899999999, "lng": -75.1445821}}}, "place_id": "ChIJyZ9cwOgPRI4RMsOx1akEm20", "types": ["locality", "political"]}}, {"code_country": 57, "country": "Colombia", "code_administrative_area_level_1": "5", "administrative_area_level_1": "Antioquia", "code_locality": "5030", "locality": "Amag\u00e1", "google": {"address_components": [{"long_name": "Amag\u00e1", "short_name": "Amag\u00e1", "types": ["locality", "political"]}, {"long_name": "Amag\u00e1", "short_name": "Amag\u00e1", "types": ["administrative_area_level_2", "political"]}, {"long_name": "Antioquia", "short_name": "Antioquia", "types": ["administrative_area_level_1", "political"]}, {"long_name": "Colombia", "short_name": "CO", "types": ["country", "political"]}], "formatted_address": "Amag\u00e1, Antioquia, Colombia", "geometry": {"bounds": {"northeast": {"lat": 6.048277, "lng": -75.69615089999999}, "southwest": {"lat": 6.025949, "lng": -75.708404}}, "location": {"lat": 6.037113000000001, "lng": -75.702277}, "location_type": "APPROXIMATE", "viewport": {"northeast": {"lat": 6.048277, "lng": -75.69615089999999}, "southwest": {"lat": 6.025949, "lng": -75.708404}}}, "place_id": "ChIJfyur5gWIRo4RcGho6JO1y1Y", "types": ["locality", "political"]}}, {"code_country": 57, "country": "Colombia", "code_administrative_area_level_1": "5", "administrative_area_level_1": "Antioquia", "code_locality": "5031", "locality": "Amalfi", "google": {"address_components": [{"long_name": "Amalfi", "short_name": "Amalfi", "types": ["locality", "political"]}, {"long_name": "Amalfi", "short_name": "Amalfi", "types": ["administrative_area_level_2", "political"]}, {"long_name": "Antioquia", "short_name": "Antioquia", "types": ["administrative_area_level_1", "political"]}, {"long_name": "Colombia", "short_name": "CO", "types": ["country", "political"]}, {"long_name": "052840", "short_name": "052840", "types": ["postal_code"]}], "formatted_address": "Amalfi, Antioquia, Colombia", "geometry": {"bounds": {"northeast": {"lat": 6.924358, "lng": -75.04098499999999}, "southwest": {"lat": 6.888539, "lng": -75.10533699999999}}, "location": {"lat": 6.906447999999999, "lng": -75.073161}, "location_type": "APPROXIMATE", "viewport": {"northeast": {"lat": 6.924358, "lng": -75.04098499999999}, "southwest": {"lat": 6.888539, "lng": -75.10533699999999}}}, "place_id": "ChIJXfHD0dqGRI4RvPtBaaOvcK4", "types": ["locality", "political"]}}, {"code_country": 57, "country": "Colombia", "code_administrative_area_level_1": "5", "administrative_area_level_1": "Antioquia", "code_locality": "5034", "locality": "Andes", "google": {"address_components": [{"long_name": "Andes", "short_name": "Andes", "types": ["locality", "political"]}, {"long_name": "Andes", "short_name": "Andes", "types": ["administrative_area_level_2", "political"]}, {"long_name": "Antioquia", "short_name": "Antioquia", "types": ["administrative_area_level_1", "political"]}, {"long_name": "Colombia", "short_name": "CO", "types": ["country", "political"]}], "formatted_address": "Andes, Antioquia, Colombia", "geometry": {"bounds": {"northeast": {"lat": 5.668830000000001, "lng": -75.873367}, "southwest": {"lat": 5.644012, "lng": -75.885941}}, "location": {"lat": 5.656421, "lng": -75.879654}, "location_type": "APPROXIMATE", "viewport": {"northeast": {"lat": 5.668830000000001, "lng": -75.873367}, "southwest": {"lat": 5.644012, "lng": -75.885941}}}, "place_id": "ChIJxVPuTutRRo4RNjjv7w4fYO4", "types": ["locality", "political"]}}, {"code_country": 57, "country": "Colombia", "code_administrative_area_level_1": "5", "administrative_area_level_1": "Antioquia", "code_locality": "5036", "locality": "Angel\u00f3polis", "google": {"address_components": [{"long_name": "Angel\u00f3polis", "short_name": "Angel\u00f3polis", "types": ["locality", "political"]}, {"long_name": "Angel\u00f3polis", "short_name": "Angel\u00f3polis", "types": ["administrative_area_level_2", "political"]}, {"long_name": "Antioquia", "short_name": "Antioquia", "types": ["administrative_area_level_1", "political"]}, {"long_name": "Colombia", "short_name": "CO", "types": ["country", "political"]}, {"long_name": "055830", "short_name": "055830", "types": ["postal_code"]}], "formatted_address": "Angel\u00f3polis, Antioquia, Colombia", "geometry": {"bounds": {"northeast": {"lat": 6.121098, "lng": -75.704917}, "southwest": {"lat": 6.104440899999999, "lng": -75.71836110000001}}, "location": {"lat": 6.112769, "lng": -75.71163899999999}, "location_type": "APPROXIMATE", "viewport": {"northeast": {"lat": 6.121098, "lng": -75.704917}, "southwest": {"lat": 6.104440899999999, "lng": -75.71836110000001}}}, "place_id": "ChIJFafmLV-HRo4RiLOxeU4p08I", "types": ["locality", "political"]}}, {"code_country": 57, "country": "Colombia", "code_administrative_area_level_1": "5", "administrative_area_level_1": "Antioquia", "code_locality": "5038", "locality": "Angostura", "google": {"address_components": [{"long_name": "Angostura", "short_name": "Angostura", "types": ["locality", "political"]}, {"long_name": "Angostura", "short_name": "Angostura", "types": ["administrative_area_level_2", "political"]}, {"long_name": "Antioquia", "short_name": "Antioquia", "types": ["administrative_area_level_1", "political"]}, {"long_name": "Colombia", "short_name": "CO", "types": ["country", "political"]}, {"long_name": "051810", "short_name": "051810", "types": ["postal_code"]}], "formatted_address": "Angostura, Antioquia, Colombia", "geometry": {"bounds": {"northeast": {"lat": 6.889868, "lng": -75.333158}, "southwest": {"lat": 6.881429, "lng": -75.33850079999999}}, "location": {"lat": 6.885648, "lng": -75.33582899999999}, "location_type": "APPROXIMATE", "viewport": {"northeast": {"lat": 6.889868, "lng": -75.333158}, "southwest": {"lat": 6.881429, "lng": -75.33850079999999}}}, "place_id": "ChIJadoq8cmKRI4R1OqJxz_J3Pk", "types": ["locality", "political"]}}, {"code_country": 57, "country": "Colombia", "code_administrative_area_level_1": "5", "administrative_area_level_1": "Antioquia", "code_locality": "5040", "locality": "Anor\u00ed", "google": {"address_components": [{"long_name": "Anor\u00ed", "short_name": "Anor\u00ed", "types": ["locality", "political"]}, {"long_name": "Anor\u00ed", "short_name": "Anor\u00ed", "types": ["administrative_area_level_2", "political"]}, {"long_name": "Antioquia", "short_name": "Antioquia", "types": ["administrative_area_level_1", "political"]}, {"long_name": "Colombia", "short_name": "CO", "types": ["country", "political"]}], "formatted_address": "Anor\u00ed, Antioquia, Colombia", "geometry": {"bounds": {"northeast": {"lat": 7.081054, "lng": -75.139954}, "southwest": {"lat": 7.06607, "lng": -75.1546199}}, "location": {"lat": 7.073562, "lng": -75.14728699999999}, "location_type": "APPROXIMATE", "viewport": {"northeast": {"lat": 7.081054, "lng": -75.139954}, "southwest": {"lat": 7.06607, "lng": -75.1546199}}}, "place_id": "ChIJcbfFp3uaRI4RwttxZNDq38E", "types": ["locality", "political"]}}, {"code_country": 57, "country": "Colombia", "code_administrative_area_level_1": "68", "administrative_area_level_1": "Santander", "code_locality": "68176", "locality": "Chim\u00e1", "google": {"address_components": [{"long_name": "Chima, Santander", "short_name": "Chima, Santander", "types": ["locality", "political"]}, {"long_name": "Chima", "short_name": "Chima", "types": ["administrative_area_level_2", "political"]}, {"long_name": "Santander", "short_name": "Santander", "types": ["administrative_area_level_1", "political"]}, {"long_name": "Colombia", "short_name": "CO", "types": ["country", "political"]}, {"long_name": "683007", "short_name": "683007", "types": ["postal_code"]}], "formatted_address": "Chima, Santander, Chima, Santander, Colombia", "geometry": {"location": {"lat": 6.34469, "lng": -73.37442}, "location_type": "APPROXIMATE", "viewport": {"northeast": {"lat": 6.3557795, "lng": -73.3584126}, "southwest": {"lat": 6.333600199999999, "lng": -73.3904274}}}, "place_id": "ChIJt-iPD3_jaY4RmvVgIhrS7KI", "types": ["locality", "political"]}}, {"code_country": 57, "country": "Colombia", "code_administrative_area_level_1": "5", "administrative_area_level_1": "Antioquia", "code_locality": "5044", "locality": "Anza", "google": {"address_components": [{"long_name": "Anz\u00e1", "short_name": "Anz\u00e1", "types": ["locality", "political"]}, {"long_name": "Anza", "short_name": "Anza", "types": ["administrative_area_level_2", "political"]}, {"long_name": "Antioquia", "short_name": "Antioquia", "types": ["administrative_area_level_1", "political"]}, {"long_name": "Colombia", "short_name": "CO", "types": ["country", "political"]}], "formatted_address": "Anz\u00e1, Anza, Antioquia, Colombia", "geometry": {"bounds": {"northeast": {"lat": 6.304492, "lng": -75.851657}, "southwest": {"lat": 6.29772, "lng": -75.8559911}}, "location": {"lat": 6.301106, "lng": -75.853255}, "location_type": "APPROXIMATE", "viewport": {"northeast": {"lat": 6.304492, "lng": -75.851657}, "southwest": {"lat": 6.29772, "lng": -75.8559911}}}, "place_id": "ChIJf65VBtbQRY4R_ion6Vk45MI", "types": ["locality", "political"]}}, {"code_country": 57, "country": "Colombia", "code_administrative_area_level_1": "5", "administrative_area_level_1": "Antioquia", "code_locality": "5045", "locality": "Apartad\u00f3", "google": {"address_components": [{"long_name": "Apartad\u00f3", "short_name": "Apartad\u00f3", "types": ["locality", "political"]}, {"long_name": "Apartad\u00f3", "short_name": "Apartad\u00f3", "types": ["administrative_area_level_2", "political"]}, {"long_name": "Antioquia", "short_name": "Antioquia", "types": ["administrative_area_level_1", "political"]}, {"long_name": "Colombia", "short_name": "CO", "types": ["country", "political"]}], "formatted_address": "Apartad\u00f3, Antioquia, Colombia", "geometry": {"bounds": {"northeast": {"lat": 7.8955921, "lng": -76.60775199999999}, "southwest": {"lat": 7.869930099999999, "lng": -76.641633}}, "location": {"lat": 7.882760999999999, "lng": -76.624692}, "location_type": "APPROXIMATE", "viewport": {"northeast": {"lat": 7.8955921, "lng": -76.60775199999999}, "southwest": {"lat": 7.869930099999999, "lng": -76.641633}}}, "place_id": "ChIJswW2iXkNUI4R3GPIRMCs-QU", "types": ["locality", "political"]}}, {"code_country": 57, "country": "Colombia", "code_administrative_area_level_1": "5", "administrative_area_level_1": "Antioquia", "code_locality": "5051", "locality": "Arboletes", "google": {"address_components": [{"long_name": "Arboletes", "short_name": "Arboletes", "types": ["locality", "political"]}, {"long_name": "Arboletes", "short_name": "Arboletes", "types": ["administrative_area_level_2", "political"]}, {"long_name": "Antioquia", "short_name": "Antioquia", "types": ["administrative_area_level_1", "political"]}, {"long_name": "Colombia", "short_name": "CO", "types": ["country", "political"]}], "formatted_address": "Arboletes, Antioquia, Colombia", "geometry": {"bounds": {"northeast": {"lat": 8.856580899999999, "lng": -76.418071}, "southwest": {"lat": 8.843627999999999, "lng": -76.43610799999999}}, "location": {"lat": 8.850104, "lng": -76.427089}, "location_type": "APPROXIMATE", "viewport": {"northeast": {"lat": 8.856580899999999, "lng": -76.418071}, "southwest": {"lat": 8.843627999999999, "lng": -76.43610799999999}}}, "place_id": "ChIJdW-6XDMHWo4RJMXtY9YCkPw", "types": ["locality", "political"]}}, {"code_country": 57, "country": "Colombia", "code_administrative_area_level_1": "5", "administrative_area_level_1": "Antioquia", "code_locality": "5055", "locality": "Argelia", "google": {"address_components": [{"long_name": "Argelia", "short_name": "Argelia", "types": ["locality", "political"]}, {"long_name": "Argelia", "short_name": "Argelia", "types": ["administrative_area_level_2", "political"]}, {"long_name": "Antioquia", "short_name": "Antioquia", "types": ["administrative_area_level_1", "political"]}, {"long_name": "Colombia", "short_name": "CO", "types": ["country", "political"]}], "formatted_address": "Argelia, Antioquia, Colombia", "geometry": {"bounds": {"northeast": {"lat": 5.734233, "lng": -75.1368359}, "southwest": {"lat": 5.727484899999999, "lng": -75.1475359}}, "location": {"lat": 5.730859, "lng": -75.142186}, "location_type": "APPROXIMATE", "viewport": {"northeast": {"lat": 5.734233, "lng": -75.1368359}, "southwest": {"lat": 5.727484899999999, "lng": -75.1475359}}}, "place_id": "ChIJk2g01pHPRo4REq6hY3B37EQ", "types": ["locality", "political"]}}, {"code_country": 57, "country": "Colombia", "code_administrative_area_level_1": "5", "administrative_area_level_1": "Antioquia", "code_locality": "5059", "locality": "Armenia", "google": {"address_components": [{"long_name": "Armenia", "short_name": "Armenia", "types": ["locality", "political"]}, {"long_name": "Armenia", "short_name": "Armenia", "types": ["administrative_area_level_2", "political"]}, {"long_name": "Antioquia", "short_name": "Antioquia", "types": ["administrative_area_level_1", "political"]}, {"long_name": "Colombia", "short_name": "CO", "types": ["country", "political"]}], "formatted_address": "Armenia, Antioquia, Colombia", "geometry": {"bounds": {"northeast": {"lat": 6.165318999999999, "lng": -75.78239599999999}, "southwest": {"lat": 6.1487989, "lng": -75.79117}}, "location": {"lat": 6.157058999999999, "lng": -75.786783}, "location_type": "APPROXIMATE", "viewport": {"northeast": {"lat": 6.165318999999999, "lng": -75.78239599999999}, "southwest": {"lat": 6.1487989, "lng": -75.79117}}}, "place_id": "ChIJV3UU2sN-Ro4RrJxVyvUeadc", "types": ["locality", "political"]}}, {"code_country": 57, "country": "Colombia", "code_administrative_area_level_1": "5", "administrative_area_level_1": "Antioquia", "code_locality": "5079", "locality": "Barbosa", "google": {"address_components": [{"long_name": "Barbosa", "short_name": "Barbosa", "types": ["locality", "political"]}, {"long_name": "Barbosa", "short_name": "Barbosa", "types": ["administrative_area_level_2", "political"]}, {"long_name": "Antioquia", "short_name": "Antioquia", "types": ["administrative_area_level_1", "political"]}, {"long_name": "Colombia", "short_name": "CO", "types": ["country", "political"]}], "formatted_address": "Barbosa, Antioquia, Colombia", "geometry": {"bounds": {"northeast": {"lat": 6.4500991, "lng": -75.3211721}, "southwest": {"lat": 6.427482899999999, "lng": -75.347026}}, "location": {"lat": 6.438790999999999, "lng": -75.334099}, "location_type": "APPROXIMATE", "viewport": {"northeast": {"lat": 6.4500991, "lng": -75.3211721}, "southwest": {"lat": 6.427482899999999, "lng": -75.347026}}}, "place_id": "ChIJiyxGwRoWRI4RGAY7REr_Xu4", "types": ["locality", "political"]}}, {"code_country": 57, "country": "Colombia", "code_administrative_area_level_1": "5", "administrative_area_level_1": "Antioquia", "code_locality": "5088", "locality": "Bello", "google": {"address_components": [{"long_name": "Almac\u00e9n \u00c9xito Bello", "short_name": "Almac\u00e9n \u00c9xito Bello", "types": ["route"]}, {"long_name": "Bello", "short_name": "Bello", "types": ["locality", "political"]}, {"long_name": "Bello", "short_name": "Bello", "types": ["administrative_area_level_2", "political"]}, {"long_name": "Antioquia", "short_name": "Antioquia", "types": ["administrative_area_level_1", "political"]}, {"long_name": "Colombia", "short_name": "CO", "types": ["country", "political"]}, {"long_name": "051050", "short_name": "051050", "types": ["postal_code"]}], "formatted_address": "Almac\u00e9n \u00c9xito Bello, Bello, Antioquia, Colombia", "geometry": {"bounds": {"northeast": {"lat": 6.3399607, "lng": -75.54443289999999}, "southwest": {"lat": 6.3397541, "lng": -75.54450109999999}}, "location": {"lat": 6.339857100000001, "lng": -75.5444748}, "location_type": "GEOMETRIC_CENTER", "viewport": {"northeast": {"lat": 6.341206380291502, "lng": -75.54311801970849}, "southwest": {"lat": 6.338508419708498, "lng": -75.5458159802915}}}, "place_id": "ChIJWby6PZovRI4RFd40XjLVAGg", "types": ["route"]}}, {"code_country": 57, "country": "Colombia", "code_administrative_area_level_1": "5", "administrative_area_level_1": "Antioquia", "code_locality": "5091", "locality": "Betania", "google": {"address_components": [{"long_name": "Betania", "short_name": "Betania", "types": ["locality", "political"]}, {"long_name": "Betania", "short_name": "Betania", "types": ["administrative_area_level_2", "political"]}, {"long_name": "Antioquia", "short_name": "Antioquia", "types": ["administrative_area_level_1", "political"]}, {"long_name": "Colombia", "short_name": "CO", "types": ["country", "political"]}], "formatted_address": "Betania, Antioquia, Colombia", "geometry": {"bounds": {"northeast": {"lat": 5.7523639, "lng": -75.969905}, "southwest": {"lat": 5.740934999999999, "lng": -75.98523279999999}}, "location": {"lat": 5.746649, "lng": -75.977569}, "location_type": "APPROXIMATE", "viewport": {"northeast": {"lat": 5.7523639, "lng": -75.969905}, "southwest": {"lat": 5.740934999999999, "lng": -75.98523279999999}}}, "place_id": "ChIJTYO0D8JFRo4RHtdKnxjdvvE", "types": ["locality", "political"]}}, {"code_country": 57, "country": "Colombia", "code_administrative_area_level_1": "5", "administrative_area_level_1": "Antioquia", "code_locality": "5093", "locality": "Betulia", "google": {"address_components": [{"long_name": "Betulia", "short_name": "Betulia", "types": ["locality", "political"]}, {"long_name": "Betulia", "short_name": "Betulia", "types": ["administrative_area_level_2", "political"]}, {"long_name": "Antioquia", "short_name": "Antioquia", "types": ["administrative_area_level_1", "political"]}, {"long_name": "Colombia", "short_name": "CO", "types": ["country", "political"]}], "formatted_address": "Betulia, Antioquia, Colombia", "geometry": {"bounds": {"northeast": {"lat": 6.1181104, "lng": -75.9815311}, "southwest": {"lat": 6.104924899999999, "lng": -75.99238869999999}}, "location": {"lat": 6.11278, "lng": -75.98467}, "location_type": "APPROXIMATE", "viewport": {"northeast": {"lat": 6.1181104, "lng": -75.9815311}, "southwest": {"lat": 6.104924899999999, "lng": -75.99238869999999}}}, "place_id": "ChIJGQPiAmdxRo4RSGBE819Yw_c", "types": ["locality", "political"]}}, {"code_country": 57, "country": "Colombia", "code_administrative_area_level_1": "5", "administrative_area_level_1": "Antioquia", "code_locality": "5101", "locality": "Ciudad Bol\u00edvar", "google": {"address_components": [{"long_name": "Ciudad Bol\u00edvar", "short_name": "Ciudad Bol\u00edvar", "types": ["locality", "political"]}, {"long_name": "Ciudad Bol\u00edvar", "short_name": "Ciudad Bol\u00edvar", "types": ["administrative_area_level_2", "political"]}, {"long_name": "Antioquia", "short_name": "Antioquia", "types": ["administrative_area_level_1", "political"]}, {"long_name": "Colombia", "short_name": "CO", "types": ["country", "political"]}], "formatted_address": "Ciudad Bol\u00edvar, Antioquia, Colombia", "geometry": {"bounds": {"northeast": {"lat": 5.860964999999999, "lng": -76.0045581}, "southwest": {"lat": 5.843986999999999, "lng": -76.0391361}}, "location": {"lat": 5.852475999999999, "lng": -76.0218469}, "location_type": "APPROXIMATE", "viewport": {"northeast": {"lat": 5.860964999999999, "lng": -76.0045581}, "southwest": {"lat": 5.843986999999999, "lng": -76.0391361}}}, "place_id": "ChIJh8V6IadBRo4RfuLF3_72Cx8", "types": ["locality", "political"]}}, {"code_country": 57, "country": "Colombia", "code_administrative_area_level_1": "5", "administrative_area_level_1": "Antioquia", "code_locality": "5107", "locality": "Brice\u00f1o", "google": {"address_components": [{"long_name": "Brice\u00f1o", "short_name": "Brice\u00f1o", "types": ["neighborhood", "political"]}, {"long_name": "Brice\u00f1o", "short_name": "Brice\u00f1o", "types": ["locality", "political"]}, {"long_name": "Brice\u00f1o", "short_name": "Brice\u00f1o", "types": ["administrative_area_level_2", "political"]}, {"long_name": "Antioquia", "short_name": "Antioquia", "types": ["administrative_area_level_1", "political"]}, {"long_name": "Colombia", "short_name": "CO", "types": ["country", "political"]}, {"long_name": "052060", "short_name": "052060", "types": ["postal_code"]}], "formatted_address": "Brice\u00f1o, Antioquia, Colombia", "geometry": {"location": {"lat": 7.11062, "lng": -75.55156}, "location_type": "APPROXIMATE", "viewport": {"northeast": {"lat": 7.121691999999999, "lng": -75.5355526}, "southwest": {"lat": 7.0995477, "lng": -75.56756740000002}}}, "place_id": "ChIJfbdNrsLlRI4RRnYGLUpCDJI", "types": ["neighborhood", "political"]}}, {"code_country": 57, "country": "Colombia", "code_administrative_area_level_1": "5", "administrative_area_level_1": "Antioquia", "code_locality": "5113", "locality": "Buritic\u00e1", "google": {"address_components": [{"long_name": "Buritic\u00e1", "short_name": "Buritic\u00e1", "types": ["locality", "political"]}, {"long_name": "Buritic\u00e1", "short_name": "Buritic\u00e1", "types": ["administrative_area_level_2", "political"]}, {"long_name": "Antioquia", "short_name": "Antioquia", "types": ["administrative_area_level_1", "political"]}, {"long_name": "Colombia", "short_name": "CO", "types": ["country", "political"]}], "formatted_address": "Buritic\u00e1, Antioquia, Colombia", "geometry": {"bounds": {"northeast": {"lat": 6.725906999999999, "lng": -75.90541309999999}, "southwest": {"lat": 6.7179281, "lng": -75.90887699999999}}, "location": {"lat": 6.721916999999999, "lng": -75.90597600000001}, "location_type": "APPROXIMATE", "viewport": {"northeast": {"lat": 6.725906999999999, "lng": -75.90541309999999}, "southwest": {"lat": 6.7179281, "lng": -75.90887699999999}}}, "place_id": "ChIJO6ka4FOlRY4RAmcoex-xQc4", "types": ["locality", "political"]}}, {"code_country": 57, "country": "Colombia", "code_administrative_area_level_1": "5", "administrative_area_level_1": "Antioquia", "code_locality": "5120", "locality": "C\u00e1ceres", "google": {"address_components": [{"long_name": "C\u00e1ceres", "short_name": "C\u00e1ceres", "types": ["locality", "political"]}, {"long_name": "C\u00e1ceres", "short_name": "C\u00e1ceres", "types": ["administrative_area_level_2", "political"]}, {"long_name": "Antioquia", "short_name": "Antioquia", "types": ["administrative_area_level_1", "political"]}, {"long_name": "Colombia", "short_name": "CO", "types": ["country", "political"]}], "formatted_address": "C\u00e1ceres, Antioquia, Colombia", "geometry": {"bounds": {"northeast": {"lat": 7.5845021, "lng": -75.3430219}, "southwest": {"lat": 7.573557, "lng": -75.35606779999999}}, "location": {"lat": 7.579028999999998, "lng": -75.34954499999999}, "location_type": "APPROXIMATE", "viewport": {"northeast": {"lat": 7.5845021, "lng": -75.3430219}, "southwest": {"lat": 7.573557, "lng": -75.35606779999999}}}, "place_id": "ChIJ2zXH9II1W44RxnVBSIOvgm4", "types": ["locality", "political"]}}, {"code_country": 57, "country": "Colombia", "code_administrative_area_level_1": "5", "administrative_area_level_1": "Antioquia", "code_locality": "5125", "locality": "Caicedo", "google": {"address_components": [{"long_name": "Caicedo", "short_name": "Caicedo", "types": ["locality", "political"]}, {"long_name": "Caicedo", "short_name": "Caicedo", "types": ["administrative_area_level_2", "political"]}, {"long_name": "Antioquia", "short_name": "Antioquia", "types": ["administrative_area_level_1", "political"]}, {"long_name": "Colombia", "short_name": "CO", "types": ["country", "political"]}], "formatted_address": "Caicedo, Antioquia, Colombia", "geometry": {"bounds": {"northeast": {"lat": 6.407286999999999, "lng": -75.9814291}, "southwest": {"lat": 6.403422, "lng": -75.98719}}, "location": {"lat": 6.405354, "lng": -75.984309}, "location_type": "APPROXIMATE", "viewport": {"northeast": {"lat": 6.407286999999999, "lng": -75.9814291}, "southwest": {"lat": 6.403422, "lng": -75.98719}}}, "place_id": "ChIJlcVdc5jERY4RCqV1nR_nZgg", "types": ["locality", "political"]}}, {"code_country": 57, "country": "Colombia", "code_administrative_area_level_1": "5", "administrative_area_level_1": "Antioquia", "code_locality": "5129", "locality": "Caldas", "google": {"address_components": [{"long_name": "Caldas", "short_name": "Caldas", "types": ["locality", "political"]}, {"long_name": "Caldas", "short_name": "Caldas", "types": ["administrative_area_level_2", "political"]}, {"long_name": "Antioquia", "short_name": "Antioquia", "types": ["administrative_area_level_1", "political"]}, {"long_name": "Colombia", "short_name": "CO", "types": ["country", "political"]}], "formatted_address": "Caldas, Antioquia, Colombia", "geometry": {"bounds": {"northeast": {"lat": 6.1129669, "lng": -75.6199869}, "southwest": {"lat": 6.075667, "lng": -75.64670799999999}}, "location": {"lat": 6.0881817, "lng": -75.6343299}, "location_type": "APPROXIMATE", "viewport": {"northeast": {"lat": 6.1129669, "lng": -75.6199869}, "southwest": {"lat": 6.075667, "lng": -75.64670799999999}}}, "place_id": "ChIJW2SJ6I6GRo4RBA3_5dbhI9w", "types": ["locality", "political"]}}, {"code_country": 57, "country": "Colombia", "code_administrative_area_level_1": "5", "administrative_area_level_1": "Antioquia", "code_locality": "5134", "locality": "Campamento", "google": {"address_components": [{"long_name": "Campamento", "short_name": "Campamento", "types": ["locality", "political"]}, {"long_name": "Campamento", "short_name": "Campamento", "types": ["administrative_area_level_2", "political"]}, {"long_name": "Antioquia", "short_name": "Antioquia", "types": ["administrative_area_level_1", "political"]}, {"long_name": "Colombia", "short_name": "CO", "types": ["country", "political"]}, {"long_name": "052020", "short_name": "052020", "types": ["postal_code"]}], "formatted_address": "Campamento, Antioquia, Colombia", "geometry": {"bounds": {"northeast": {"lat": 6.980836099999999, "lng": -75.29280299999999}, "southwest": {"lat": 6.97816, "lng": -75.30040079999999}}, "location": {"lat": 6.979498, "lng": -75.2966019}, "location_type": "APPROXIMATE", "viewport": {"northeast": {"lat": 6.980847030291502, "lng": -75.29280299999999}, "southwest": {"lat": 6.978149069708498, "lng": -75.30040079999999}}}, "place_id": "ChIJf_6KQPiMRI4R-n7wFOj7bpU", "types": ["locality", "political"]}}, {"code_country": 57, "country": "Colombia", "code_administrative_area_level_1": "5", "administrative_area_level_1": "Antioquia", "code_locality": "5138", "locality": "Ca\u00f1asgordas", "google": {"address_components": [{"long_name": "Ca\u00f1asgordas", "short_name": "Ca\u00f1asgordas", "types": ["locality", "political"]}, {"long_name": "Ca\u00f1asgordas", "short_name": "Ca\u00f1asgordas", "types": ["administrative_area_level_2", "political"]}, {"long_name": "Antioquia", "short_name": "Antioquia", "types": ["administrative_area_level_1", "political"]}, {"long_name": "Colombia", "short_name": "CO", "types": ["country", "political"]}], "formatted_address": "Ca\u00f1asgordas, Antioquia, Colombia", "geometry": {"bounds": {"northeast": {"lat": 6.7625901, "lng": -76.0170041}, "southwest": {"lat": 6.738603899999999, "lng": -76.03521599999999}}, "location": {"lat": 6.750597, "lng": -76.02611}, "location_type": "APPROXIMATE", "viewport": {"northeast": {"lat": 6.7625901, "lng": -76.0170041}, "southwest": {"lat": 6.738603899999999, "lng": -76.03521599999999}}}, "place_id": "ChIJPftoKw6jRY4RDGkx1LDTvog", "types": ["locality", "political"]}}, {"code_country": 57, "country": "Colombia", "code_administrative_area_level_1": "5", "administrative_area_level_1": "Antioquia", "code_locality": "5142", "locality": "Caracol\u00ed", "google": {"address_components": [{"long_name": "Caracol\u00ed", "short_name": "Caracol\u00ed", "types": ["locality", "political"]}, {"long_name": "Caracol\u00ed", "short_name": "Caracol\u00ed", "types": ["administrative_area_level_2", "political"]}, {"long_name": "Antioquia", "short_name": "Antioquia", "types": ["administrative_area_level_1", "political"]}, {"long_name": "Colombia", "short_name": "CO", "types": ["country", "political"]}], "formatted_address": "Caracol\u00ed, Antioquia, Colombia", "geometry": {"bounds": {"northeast": {"lat": 6.415016899999999, "lng": -74.7547079}, "southwest": {"lat": 6.40248, "lng": -74.7605269}}, "location": {"lat": 6.408748999999999, "lng": -74.7576179}, "location_type": "APPROXIMATE", "viewport": {"northeast": {"lat": 6.415016899999999, "lng": -74.7547079}, "southwest": {"lat": 6.40248, "lng": -74.7605269}}}, "place_id": "ChIJ8yRxqGruQ44Rokih9CRFdi4", "types": ["locality", "political"]}}, {"code_country": 57, "country": "Colombia", "code_administrative_area_level_1": "5", "administrative_area_level_1": "Antioquia", "code_locality": "5145", "locality": "Caramanta", "google": {"address_components": [{"long_name": "Caramanta", "short_name": "Caramanta", "types": ["locality", "political"]}, {"long_name": "Caramanta", "short_name": "Caramanta", "types": ["administrative_area_level_2", "political"]}, {"long_name": "Antioquia", "short_name": "Antioquia", "types": ["administrative_area_level_1", "political"]}, {"long_name": "Colombia", "short_name": "CO", "types": ["country", "political"]}, {"long_name": "056040", "short_name": "056040", "types": ["postal_code"]}], "formatted_address": "Caramanta, Antioquia, Colombia", "geometry": {"bounds": {"northeast": {"lat": 5.553111899999999, "lng": -75.6395869}, "southwest": {"lat": 5.5448011, "lng": -75.64782699999999}}, "location": {"lat": 5.548956, "lng": -75.64370699999999}, "location_type": "APPROXIMATE", "viewport": {"northeast": {"lat": 5.553111899999999, "lng": -75.6395869}, "southwest": {"lat": 5.5448011, "lng": -75.64782699999999}}}, "place_id": "ChIJRy4aIN4BR44RZrwdagPtBhc", "types": ["locality", "political"]}}, {"code_country": 57, "country": "Colombia", "code_administrative_area_level_1": "5", "administrative_area_level_1": "Antioquia", "code_locality": "5147", "locality": "Carepa", "google": {"address_components": [{"long_name": "Carepa", "short_name": "Carepa", "types": ["locality", "political"]}, {"long_name": "Carepa", "short_name": "Carepa", "types": ["administrative_area_level_2", "political"]}, {"long_name": "Antioquia", "short_name": "Antioquia", "types": ["administrative_area_level_1", "political"]}, {"long_name": "Colombia", "short_name": "CO", "types": ["country", "political"]}], "formatted_address": "Carepa, Antioquia, Colombia", "geometry": {"bounds": {"northeast": {"lat": 7.764580899999999, "lng": -76.648359}, "southwest": {"lat": 7.746127, "lng": -76.662504}}, "location": {"lat": 7.755354, "lng": -76.6554309}, "location_type": "APPROXIMATE", "viewport": {"northeast": {"lat": 7.764580899999999, "lng": -76.648359}, "southwest": {"lat": 7.746127, "lng": -76.662504}}}, "place_id": "ChIJm40R5BEQUI4R1pqasEhSRU8", "types": ["locality", "political"]}}, {"code_country": 57, "country": "Colombia", "code_administrative_area_level_1": "70", "administrative_area_level_1": "Sucre", "code_locality": "70670", "locality": "Sampu\u00e9s", "google": {"address_components": [{"long_name": "Sampu\u00e9s", "short_name": "Sampu\u00e9s", "types": ["locality", "political"]}, {"long_name": "Sampu\u00e9s", "short_name": "Sampu\u00e9s", "types": ["administrative_area_level_2", "political"]}, {"long_name": "Sucre", "short_name": "Sucre", "types": ["administrative_area_level_1", "political"]}, {"long_name": "Colombia", "short_name": "CO", "types": ["country", "political"]}], "formatted_address": "Sampu\u00e9s, Sucre, Colombia", "geometry": {"bounds": {"northeast": {"lat": 9.1922711, "lng": -75.369799}, "southwest": {"lat": 9.1748699, "lng": -75.39241000000001}}, "location": {"lat": 9.18357, "lng": -75.381105}, "location_type": "APPROXIMATE", "viewport": {"northeast": {"lat": 9.1922711, "lng": -75.369799}, "southwest": {"lat": 9.1748699, "lng": -75.39241000000001}}}, "place_id": "ChIJr0KfaU9qWY4RwuVJHJzOGYw", "types": ["locality", "political"]}}, {"code_country": 57, "country": "Colombia", "code_administrative_area_level_1": "5", "administrative_area_level_1": "Antioquia", "code_locality": "5150", "locality": "Carolina", "google": {"address_components": [{"long_name": "Carolina del Pr\u00edncipe", "short_name": "Carolina del Pr\u00edncipe", "types": ["locality", "political"]}, {"long_name": "Carolina", "short_name": "Carolina", "types": ["administrative_area_level_2", "political"]}, {"long_name": "Antioquia", "short_name": "Antioquia", "types": ["administrative_area_level_1", "political"]}, {"long_name": "Colombia", "short_name": "CO", "types": ["country", "political"]}], "formatted_address": "Carolina del Pr\u00edncipe, Carolina, Antioquia, Colombia", "geometry": {"bounds": {"northeast": {"lat": 6.729284, "lng": -75.276836}, "southwest": {"lat": 6.720549999999999, "lng": -75.287762}}, "location": {"lat": 6.724917, "lng": -75.282299}, "location_type": "APPROXIMATE", "viewport": {"northeast": {"lat": 6.729284, "lng": -75.276836}, "southwest": {"lat": 6.720549999999999, "lng": -75.287762}}}, "place_id": "ChIJDfN1lUVmRI4RMj4B5-WlTVk", "types": ["locality", "political"]}}, {"code_country": 57, "country": "Colombia", "code_administrative_area_level_1": "5", "administrative_area_level_1": "Antioquia", "code_locality": "5154", "locality": "Caucasia", "google": {"address_components": [{"long_name": "Caucasia", "short_name": "Caucasia", "types": ["locality", "political"]}, {"long_name": "Caucasia", "short_name": "Caucasia", "types": ["administrative_area_level_2", "political"]}, {"long_name": "Antioquia", "short_name": "Antioquia", "types": ["administrative_area_level_1", "political"]}, {"long_name": "Colombia", "short_name": "CO", "types": ["country", "political"]}, {"long_name": "052410", "short_name": "052410", "types": ["postal_code"]}], "formatted_address": "Caucasia, Antioquia, Colombia", "geometry": {"bounds": {"northeast": {"lat": 8.001555999999999, "lng": -75.18386}, "southwest": {"lat": 7.955742099999999, "lng": -75.21179599999999}}, "location": {"lat": 7.979698, "lng": -75.1985629}, "location_type": "APPROXIMATE", "viewport": {"northeast": {"lat": 8.001555999999999, "lng": -75.18386}, "southwest": {"lat": 7.955742099999999, "lng": -75.21179599999999}}}, "place_id": "ChIJ8dxwwANvW44RdJydlRwQTV0", "types": ["locality", "political"]}}, {"code_country": 57, "country": "Colombia", "code_administrative_area_level_1": "5", "administrative_area_level_1": "Antioquia", "code_locality": "5172", "locality": "Chigorod\u00f3", "google": {"address_components": [{"long_name": "Chigorod\u00f3", "short_name": "Chigorod\u00f3", "types": ["locality", "political"]}, {"long_name": "Chigorod\u00f3", "short_name": "Chigorod\u00f3", "types": ["administrative_area_level_2", "political"]}, {"long_name": "Antioquia", "short_name": "Antioquia", "types": ["administrative_area_level_1", "political"]}, {"long_name": "Colombia", "short_name": "CO", "types": ["country", "political"]}], "formatted_address": "Chigorod\u00f3, Antioquia, Colombia", "geometry": {"bounds": {"northeast": {"lat": 7.674213, "lng": -76.66714309999999}, "southwest": {"lat": 7.655986, "lng": -76.68783789999999}}, "location": {"lat": 7.665099000000001, "lng": -76.67748999999999}, "location_type": "APPROXIMATE", "viewport": {"northeast": {"lat": 7.674213, "lng": -76.66714309999999}, "southwest": {"lat": 7.655986, "lng": -76.68783789999999}}}, "place_id": "ChIJj9xZDXwbUI4RKiX1RO4KXIE", "types": ["locality", "political"]}}, {"code_country": 57, "country": "Colombia", "code_administrative_area_level_1": "5", "administrative_area_level_1": "Antioquia", "code_locality": "5190", "locality": "Cisneros", "google": {"address_components": [{"long_name": "Cisneros", "short_name": "Cisneros", "types": ["locality", "political"]}, {"long_name": "Cisneros", "short_name": "Cisneros", "types": ["administrative_area_level_2", "political"]}, {"long_name": "Antioquia", "short_name": "Antioquia", "types": ["administrative_area_level_1", "political"]}, {"long_name": "Colombia", "short_name": "CO", "types": ["country", "political"]}], "formatted_address": "Cisneros, Antioquia, Colombia", "geometry": {"bounds": {"northeast": {"lat": 6.541905000000001, "lng": -75.07634879999999}, "southwest": {"lat": 6.5348479, "lng": -75.09778390000001}}, "location": {"lat": 6.538376, "lng": -75.08706699999999}, "location_type": "APPROXIMATE", "viewport": {"northeast": {"lat": 6.541905000000001, "lng": -75.07634879999999}, "southwest": {"lat": 6.5348479, "lng": -75.09778390000001}}}, "place_id": "ChIJhR2PITlzRI4R2u59mOM3iFc", "types": ["locality", "political"]}}, {"code_country": 57, "country": "Colombia", "code_administrative_area_level_1": "5", "administrative_area_level_1": "Antioquia", "code_locality": "5197", "locality": "Cocorn\u00e1", "google": {"address_components": [{"long_name": "Cocorn\u00e1", "short_name": "Cocorn\u00e1", "types": ["locality", "political"]}, {"long_name": "Cocorn\u00e1", "short_name": "Cocorn\u00e1", "types": ["administrative_area_level_2", "political"]}, {"long_name": "Antioquia", "short_name": "Antioquia", "types": ["administrative_area_level_1", "political"]}, {"long_name": "Colombia", "short_name": "CO", "types": ["country", "political"]}, {"long_name": "054440", "short_name": "054440", "types": ["postal_code"]}], "formatted_address": "Cocorn\u00e1, Antioquia, Colombia", "geometry": {"bounds": {"northeast": {"lat": 6.062436000000001, "lng": -75.18183599999999}, "southwest": {"lat": 6.0520941, "lng": -75.1893589}}, "location": {"lat": 6.057265, "lng": -75.185598}, "location_type": "APPROXIMATE", "viewport": {"northeast": {"lat": 6.062436000000001, "lng": -75.18183599999999}, "southwest": {"lat": 6.0520941, "lng": -75.1893589}}}, "place_id": "ChIJzccxthalRo4RvtIFbXdwB-E", "types": ["locality", "political"]}}, {"code_country": 57, "country": "Colombia", "code_administrative_area_level_1": "5", "administrative_area_level_1": "Antioquia", "code_locality": "5206", "locality": "Concepci\u00f3n", "google": {"address_components": [{"long_name": "Concepci\u00f3n", "short_name": "Concepci\u00f3n", "types": ["locality", "political"]}, {"long_name": "Concepci\u00f3n", "short_name": "Concepci\u00f3n", "types": ["administrative_area_level_2", "political"]}, {"long_name": "Antioquia", "short_name": "Antioquia", "types": ["administrative_area_level_1", "political"]}, {"long_name": "Colombia", "short_name": "CO", "types": ["country", "political"]}], "formatted_address": "Concepci\u00f3n, Antioquia, Colombia", "geometry": {"bounds": {"northeast": {"lat": 6.397699999999999, "lng": -75.25164099999999}, "southwest": {"lat": 6.391006099999999, "lng": -75.2615211}}, "location": {"lat": 6.394353, "lng": -75.256581}, "location_type": "APPROXIMATE", "viewport": {"northeast": {"lat": 6.397699999999999, "lng": -75.25164099999999}, "southwest": {"lat": 6.391006099999999, "lng": -75.2615211}}}, "place_id": "ChIJs_HP-C8XRI4ReuoFs9WvPYo", "types": ["locality", "political"]}}, {"code_country": 57, "country": "Colombia", "code_administrative_area_level_1": "5", "administrative_area_level_1": "Antioquia", "code_locality": "5209", "locality": "Concordia", "google": {"address_components": [{"long_name": "Concordia", "short_name": "Concordia", "types": ["locality", "political"]}, {"long_name": "Concordia", "short_name": "Concordia", "types": ["administrative_area_level_2", "political"]}, {"long_name": "Antioquia", "short_name": "Antioquia", "types": ["administrative_area_level_1", "political"]}, {"long_name": "Colombia", "short_name": "CO", "types": ["country", "political"]}], "formatted_address": "Concordia, Antioquia, Colombia", "geometry": {"bounds": {"northeast": {"lat": 6.050627, "lng": -75.902113}, "southwest": {"lat": 6.039331, "lng": -75.9145959}}, "location": {"lat": 6.044979, "lng": -75.908354}, "location_type": "APPROXIMATE", "viewport": {"northeast": {"lat": 6.050627, "lng": -75.902113}, "southwest": {"lat": 6.039331, "lng": -75.9145959}}}, "place_id": "ChIJTQBpi_tvRo4RNKGpYR4o7oQ", "types": ["locality", "political"]}}, {"code_country": 57, "country": "Colombia", "code_administrative_area_level_1": "5", "administrative_area_level_1": "Antioquia", "code_locality": "5212", "locality": "Copacabana", "google": {"address_components": [{"long_name": "Copacabana", "short_name": "Copacabana", "types": ["locality", "political"]}, {"long_name": "Copacabana", "short_name": "Copacabana", "types": ["administrative_area_level_2", "political"]}, {"long_name": "Antioquia", "short_name": "Antioquia", "types": ["administrative_area_level_1", "political"]}, {"long_name": "Colombia", "short_name": "CO", "types": ["country", "political"]}], "formatted_address": "Copacabana, Antioquia, Colombia", "geometry": {"bounds": {"northeast": {"lat": 6.387385, "lng": -75.473771}, "southwest": {"lat": 6.327857, "lng": -75.5363849}}, "location": {"lat": 6.357621, "lng": -75.505078}, "location_type": "APPROXIMATE", "viewport": {"northeast": {"lat": 6.387385, "lng": -75.473771}, "southwest": {"lat": 6.327857, "lng": -75.5363849}}}, "place_id": "ChIJL8M3l2slRI4RSs8bNKsMSNw", "types": ["locality", "political"]}}, {"code_country": 57, "country": "Colombia", "code_administrative_area_level_1": "5", "administrative_area_level_1": "Antioquia", "code_locality": "5234", "locality": "Dabeiba", "google": {"address_components": [{"long_name": "Dabeiba", "short_name": "Dabeiba", "types": ["locality", "political"]}, {"long_name": "Dabeiba", "short_name": "Dabeiba", "types": ["administrative_area_level_2", "political"]}, {"long_name": "Antioquia", "short_name": "Antioquia", "types": ["administrative_area_level_1", "political"]}, {"long_name": "Colombia", "short_name": "CO", "types": ["country", "political"]}], "formatted_address": "Dabeiba, Antioquia, Colombia", "geometry": {"bounds": {"northeast": {"lat": 7.00612, "lng": -76.2542081}, "southwest": {"lat": 6.988627999999999, "lng": -76.272024}}, "location": {"lat": 6.997374, "lng": -76.256824}, "location_type": "APPROXIMATE", "viewport": {"northeast": {"lat": 7.00612, "lng": -76.2542081}, "southwest": {"lat": 6.988627999999999, "lng": -76.272024}}}, "place_id": "ChIJ13TsyZ5wRY4R5DJhNufDv68", "types": ["locality", "political"]}}, {"code_country": 57, "country": "Colombia", "code_administrative_area_level_1": "5", "administrative_area_level_1": "Antioquia", "code_locality": "5237", "locality": "Don Mat\u00edas", "google": {"address_components": [{"long_name": "Don Mat\u00edas", "short_name": "Don Mat\u00edas", "types": ["locality", "political"]}, {"long_name": "Don Mat\u00edas", "short_name": "Don Mat\u00edas", "types": ["administrative_area_level_2", "political"]}, {"long_name": "Antioquia", "short_name": "Antioquia", "types": ["administrative_area_level_1", "political"]}, {"long_name": "Colombia", "short_name": "CO", "types": ["country", "political"]}], "formatted_address": "Don Mat\u00edas, Antioquia, Colombia", "geometry": {"bounds": {"northeast": {"lat": 6.491142, "lng": -75.38538489999999}, "southwest": {"lat": 6.480263099999999, "lng": -75.402276}}, "location": {"lat": 6.485702, "lng": -75.39383099999999}, "location_type": "APPROXIMATE", "viewport": {"northeast": {"lat": 6.491142, "lng": -75.38538489999999}, "southwest": {"lat": 6.480263099999999, "lng": -75.402276}}}, "place_id": "ChIJPQDs9vs-RI4R6DAZj2zcYk4", "types": ["locality", "political"]}}, {"code_country": 57, "country": "Colombia", "code_administrative_area_level_1": "5", "administrative_area_level_1": "Antioquia", "code_locality": "5240", "locality": "Eb\u00e9jico", "google": {"address_components": [{"long_name": "Eb\u00e9jico", "short_name": "Eb\u00e9jico", "types": ["locality", "political"]}, {"long_name": "Eb\u00e9jico", "short_name": "Eb\u00e9jico", "types": ["administrative_area_level_2", "political"]}, {"long_name": "Antioquia", "short_name": "Antioquia", "types": ["administrative_area_level_1", "political"]}, {"long_name": "Colombia", "short_name": "CO", "types": ["country", "political"]}, {"long_name": "055810", "short_name": "055810", "types": ["postal_code"]}], "formatted_address": "Eb\u00e9jico, Antioquia, Colombia", "geometry": {"bounds": {"northeast": {"lat": 6.330642, "lng": -75.76254209999999}, "southwest": {"lat": 6.323169999999999, "lng": -75.7721481}}, "location": {"lat": 6.326906, "lng": -75.76734499999999}, "location_type": "APPROXIMATE", "viewport": {"northeast": {"lat": 6.330642, "lng": -75.76254209999999}, "southwest": {"lat": 6.323169999999999, "lng": -75.7721481}}}, "place_id": "ChIJcdlxhaXTRY4RoA1IgOCzEjw", "types": ["locality", "political"]}}, {"code_country": 57, "country": "Colombia", "code_administrative_area_level_1": "5", "administrative_area_level_1": "Antioquia", "code_locality": "5250", "locality": "El Bagre", "google": {"address_components": [{"long_name": "El Bagre", "short_name": "El Bagre", "types": ["locality", "political"]}, {"long_name": "El Bagre", "short_name": "El Bagre", "types": ["administrative_area_level_2", "political"]}, {"long_name": "Antioquia", "short_name": "Antioquia", "types": ["administrative_area_level_1", "political"]}, {"long_name": "Colombia", "short_name": "CO", "types": ["country", "political"]}, {"long_name": "052430", "short_name": "052430", "types": ["postal_code"]}], "formatted_address": "El Bagre, Antioquia, Colombia", "geometry": {"bounds": {"northeast": {"lat": 7.616626, "lng": -74.79496189999999}, "southwest": {"lat": 7.5860881, "lng": -74.8155919}}, "location": {"lat": 7.601356999999999, "lng": -74.80527699999999}, "location_type": "APPROXIMATE", "viewport": {"northeast": {"lat": 7.616626, "lng": -74.79496189999999}, "southwest": {"lat": 7.5860881, "lng": -74.8155919}}}, "place_id": "ChIJRbz6hdytXI4RbsZWMBpcY2E", "types": ["locality", "political"]}}, {"code_country": 57, "country": "Colombia", "code_administrative_area_level_1": "5", "administrative_area_level_1": "Antioquia", "code_locality": "5264", "locality": "Entrerrios", "google": {"address_components": [{"long_name": "Entrerr\u00edos", "short_name": "Entrerr\u00edos", "types": ["locality", "political"]}, {"long_name": "Entrerrios", "short_name": "Entrerrios", "types": ["administrative_area_level_2", "political"]}, {"long_name": "Antioquia", "short_name": "Antioquia", "types": ["administrative_area_level_1", "political"]}, {"long_name": "Colombia", "short_name": "CO", "types": ["country", "political"]}], "formatted_address": "Entrerr\u00edos, Entrerrios, Antioquia, Colombia", "geometry": {"bounds": {"northeast": {"lat": 6.570079, "lng": -75.511754}, "southwest": {"lat": 6.562214, "lng": -75.5220619}}, "location": {"lat": 6.566146, "lng": -75.516908}, "location_type": "APPROXIMATE", "viewport": {"northeast": {"lat": 6.570079, "lng": -75.511754}, "southwest": {"lat": 6.562214, "lng": -75.5220619}}}, "place_id": "ChIJAdyypNpHRI4RxP5AUXsc6ZA", "types": ["locality", "political"]}}, {"code_country": 57, "country": "Colombia", "code_administrative_area_level_1": "5", "administrative_area_level_1": "Antioquia", "code_locality": "5266", "locality": "Envigado", "google": {"address_components": [{"long_name": "Envigado", "short_name": "Envigado", "types": ["locality", "political"]}, {"long_name": "Envigado", "short_name": "Envigado", "types": ["administrative_area_level_2", "political"]}, {"long_name": "Antioquia", "short_name": "Antioquia", "types": ["administrative_area_level_1", "political"]}, {"long_name": "Colombia", "short_name": "CO", "types": ["country", "political"]}], "formatted_address": "Envigado, Antioquia, Colombia", "geometry": {"bounds": {"northeast": {"lat": 6.188894, "lng": -75.55818599999999}, "southwest": {"lat": 6.14373, "lng": -75.605673}}, "location": {"lat": 6.167286499999999, "lng": -75.5836963}, "location_type": "APPROXIMATE", "viewport": {"northeast": {"lat": 6.188894, "lng": -75.55818599999999}, "southwest": {"lat": 6.14373, "lng": -75.605673}}}, "place_id": "ChIJYa6GO0mCRo4RtAqEiD4bOg4", "types": ["locality", "political"]}}, {"code_country": 57, "country": "Colombia", "code_administrative_area_level_1": "5", "administrative_area_level_1": "Antioquia", "code_locality": "5282", "locality": "Fredonia", "google": {"address_components": [{"long_name": "Fredonia", "short_name": "Fredonia", "types": ["locality", "political"]}, {"long_name": "Fredonia", "short_name": "Fredonia", "types": ["administrative_area_level_2", "political"]}, {"long_name": "Antioquia", "short_name": "Antioquia", "types": ["administrative_area_level_1", "political"]}, {"long_name": "Colombia", "short_name": "CO", "types": ["country", "political"]}], "formatted_address": "Fredonia, Antioquia, Colombia", "geometry": {"bounds": {"northeast": {"lat": 5.936300999999999, "lng": -75.66451909999999}, "southwest": {"lat": 5.918189, "lng": -75.68703409999999}}, "location": {"lat": 5.927245, "lng": -75.671007}, "location_type": "APPROXIMATE", "viewport": {"northeast": {"lat": 5.936300999999999, "lng": -75.66451909999999}, "southwest": {"lat": 5.918189, "lng": -75.68703409999999}}}, "place_id": "ChIJVcBRi1OKRo4RrsYopWYw4Q0", "types": ["locality", "political"]}}, {"code_country": 57, "country": "Colombia", "code_administrative_area_level_1": "5", "administrative_area_level_1": "Antioquia", "code_locality": "5306", "locality": "Giraldo", "google": {"address_components": [{"long_name": "Giraldo", "short_name": "Giraldo", "types": ["locality", "political"]}, {"long_name": "Giraldo", "short_name": "Giraldo", "types": ["administrative_area_level_2", "political"]}, {"long_name": "Antioquia", "short_name": "Antioquia", "types": ["administrative_area_level_1", "political"]}, {"long_name": "Colombia", "short_name": "CO", "types": ["country", "political"]}], "formatted_address": "Giraldo, Antioquia, Colombia", "geometry": {"bounds": {"northeast": {"lat": 6.6845089, "lng": -75.9483759}, "southwest": {"lat": 6.676737999999999, "lng": -75.95429589999999}}, "location": {"lat": 6.680623, "lng": -75.953096}, "location_type": "APPROXIMATE", "viewport": {"northeast": {"lat": 6.6845089, "lng": -75.9483759}, "southwest": {"lat": 6.676737999999999, "lng": -75.95429589999999}}}, "place_id": "ChIJLz7yNQG7RY4RoIDuJPVs7xI", "types": ["locality", "political"]}}, {"code_country": 57, "country": "Colombia", "code_administrative_area_level_1": "5", "administrative_area_level_1": "Antioquia", "code_locality": "5308", "locality": "Girardota", "google": {"address_components": [{"long_name": "Girardota", "short_name": "Girardota", "types": ["locality", "political"]}, {"long_name": "Girardota", "short_name": "Girardota", "types": ["administrative_area_level_2", "political"]}, {"long_name": "Antioquia", "short_name": "Antioquia", "types": ["administrative_area_level_1", "political"]}, {"long_name": "Colombia", "short_name": "CO", "types": ["country", "political"]}], "formatted_address": "Girardota, Antioquia, Colombia", "geometry": {"bounds": {"northeast": {"lat": 6.392646999999999, "lng": -75.435371}, "southwest": {"lat": 6.363996999999999, "lng": -75.463664}}, "location": {"lat": 6.378322, "lng": -75.449517}, "location_type": "APPROXIMATE", "viewport": {"northeast": {"lat": 6.392646999999999, "lng": -75.435371}, "southwest": {"lat": 6.363996999999999, "lng": -75.463664}}}, "place_id": "ChIJN-0pKFA7RI4R1q4f0r5bIkk", "types": ["locality", "political"]}}, {"code_country": 57, "country": "Colombia", "code_administrative_area_level_1": "5", "administrative_area_level_1": "Antioquia", "code_locality": "5310", "locality": "G\u00f3mez Plata", "google": {"address_components": [{"long_name": "G\u00f3mez Plata", "short_name": "G\u00f3mez Plata", "types": ["locality", "political"]}, {"long_name": "G\u00f3mez Plata", "short_name": "G\u00f3mez Plata", "types": ["administrative_area_level_2", "political"]}, {"long_name": "Antioquia", "short_name": "Antioquia", "types": ["administrative_area_level_1", "political"]}, {"long_name": "Colombia", "short_name": "CO", "types": ["country", "political"]}], "formatted_address": "G\u00f3mez Plata, Antioquia, Colombia", "geometry": {"bounds": {"northeast": {"lat": 6.6928408, "lng": -75.2131739}, "southwest": {"lat": 6.673655999999999, "lng": -75.230364}}, "location": {"lat": 6.683248, "lng": -75.221769}, "location_type": "APPROXIMATE", "viewport": {"northeast": {"lat": 6.6928408, "lng": -75.2131739}, "southwest": {"lat": 6.673655999999999, "lng": -75.230364}}}, "place_id": "ChIJ3UW20GhvRI4RtA-TaUAfix4", "types": ["locality", "political"]}}, {"code_country": 57, "country": "Colombia", "code_administrative_area_level_1": "85", "administrative_area_level_1": "Casanare", "code_locality": "85225", "locality": "Nunch\u00eda", "google": {"address_components": [{"long_name": "Nunch\u00eda", "short_name": "Nunch\u00eda", "types": ["locality", "political"]}, {"long_name": "Nunch\u00eda", "short_name": "Nunch\u00eda", "types": ["administrative_area_level_2", "political"]}, {"long_name": "Casanare", "short_name": "Casanare", "types": ["administrative_area_level_1", "political"]}, {"long_name": "Colombia", "short_name": "CO", "types": ["country", "political"]}], "formatted_address": "Nunch\u00eda, Casanare, Colombia", "geometry": {"bounds": {"northeast": {"lat": 5.6414731, "lng": -72.190034}, "southwest": {"lat": 5.634721, "lng": -72.20102}}, "location": {"lat": 5.638097, "lng": -72.195527}, "location_type": "APPROXIMATE", "viewport": {"northeast": {"lat": 5.6414731, "lng": -72.190034}, "southwest": {"lat": 5.634721, "lng": -72.20102}}}, "place_id": "ChIJJ7rCl4yQa44R7sH1gjMBuWA", "types": ["locality", "political"]}}, {"code_country": 57, "country": "Colombia", "code_administrative_area_level_1": "5", "administrative_area_level_1": "Antioquia", "code_locality": "5315", "locality": "Guadalupe", "google": {"address_components": [{"long_name": "Guadalupe", "short_name": "Guadalupe", "types": ["locality", "political"]}, {"long_name": "Guadalupe", "short_name": "Guadalupe", "types": ["administrative_area_level_2", "political"]}, {"long_name": "Antioquia", "short_name": "Antioquia", "types": ["administrative_area_level_1", "political"]}, {"long_name": "Colombia", "short_name": "CO", "types": ["country", "political"]}], "formatted_address": "Guadalupe, Antioquia, Colombia", "geometry": {"bounds": {"northeast": {"lat": 6.816376099999999, "lng": -75.23785090000001}, "southwest": {"lat": 6.8115281, "lng": -75.2423539}}, "location": {"lat": 6.813952, "lng": -75.24010299999999}, "location_type": "APPROXIMATE", "viewport": {"northeast": {"lat": 6.816376099999999, "lng": -75.23785090000001}, "southwest": {"lat": 6.8115281, "lng": -75.2423539}}}, "place_id": "ChIJU9D839NjRI4RivGNoqWpEjI", "types": ["locality", "political"]}}, {"code_country": 57, "country": "Colombia", "code_administrative_area_level_1": "5", "administrative_area_level_1": "Antioquia", "code_locality": "5318", "locality": "Guarne", "google": {"address_components": [{"long_name": "Guarne", "short_name": "Guarne", "types": ["locality", "political"]}, {"long_name": "Guarne", "short_name": "Guarne", "types": ["administrative_area_level_2", "political"]}, {"long_name": "Antioquia", "short_name": "Antioquia", "types": ["administrative_area_level_1", "political"]}, {"long_name": "Colombia", "short_name": "CO", "types": ["country", "political"]}], "formatted_address": "Guarne, Antioquia, Colombia", "geometry": {"bounds": {"northeast": {"lat": 6.308574999999999, "lng": -75.4242979}, "southwest": {"lat": 6.251021000000001, "lng": -75.46003379999999}}, "location": {"lat": 6.279597, "lng": -75.442627}, "location_type": "APPROXIMATE", "viewport": {"northeast": {"lat": 6.308574999999999, "lng": -75.4242979}, "southwest": {"lat": 6.251021000000001, "lng": -75.46003379999999}}}, "place_id": "ChIJG5x03K4mRI4RxuSgxRXUrJ4", "types": ["locality", "political"]}}, {"code_country": 57, "country": "Colombia", "code_administrative_area_level_1": "5", "administrative_area_level_1": "Antioquia", "code_locality": "5321", "locality": "Guatap\u00e9", "google": {"address_components": [{"long_name": "Guatap\u00e9", "short_name": "Guatap\u00e9", "types": ["locality", "political"]}, {"long_name": "Guatap\u00e9", "short_name": "Guatap\u00e9", "types": ["administrative_area_level_2", "political"]}, {"long_name": "Antioquia", "short_name": "Antioquia", "types": ["administrative_area_level_1", "political"]}, {"long_name": "Colombia", "short_name": "CO", "types": ["country", "political"]}], "formatted_address": "Guatap\u00e9, Antioquia, Colombia", "geometry": {"bounds": {"northeast": {"lat": 6.235363, "lng": -75.15252799999999}, "southwest": {"lat": 6.226911899999999, "lng": -75.1637441}}, "location": {"lat": 6.231136999999999, "lng": -75.15346699999999}, "location_type": "APPROXIMATE", "viewport": {"northeast": {"lat": 6.235363, "lng": -75.15252799999999}, "southwest": {"lat": 6.226911899999999, "lng": -75.1637441}}}, "place_id": "ChIJu_HtcikdRI4R3HpvCZzE6cg", "types": ["locality", "political"]}}, {"code_country": 57, "country": "Colombia", "code_administrative_area_level_1": "5", "administrative_area_level_1": "Antioquia", "code_locality": "5347", "locality": "Heliconia", "google": {"address_components": [{"long_name": "Heliconia", "short_name": "Heliconia", "types": ["locality", "political"]}, {"long_name": "Heliconia", "short_name": "Heliconia", "types": ["administrative_area_level_2", "political"]}, {"long_name": "Antioquia", "short_name": "Antioquia", "types": ["administrative_area_level_1", "political"]}, {"long_name": "Colombia", "short_name": "CO", "types": ["country", "political"]}], "formatted_address": "Heliconia, Antioquia, Colombia", "geometry": {"bounds": {"northeast": {"lat": 6.216195, "lng": -75.726737}, "southwest": {"lat": 6.2013681, "lng": -75.73915110000002}}, "location": {"lat": 6.208781, "lng": -75.732944}, "location_type": "APPROXIMATE", "viewport": {"northeast": {"lat": 6.216195, "lng": -75.726737}, "southwest": {"lat": 6.2013681, "lng": -75.73915110000002}}}, "place_id": "ChIJAyHPivR_Ro4R6oGiueZclxY", "types": ["locality", "political"]}}, {"code_country": 57, "country": "Colombia", "code_administrative_area_level_1": "5", "administrative_area_level_1": "Antioquia", "code_locality": "5353", "locality": "Hispania", "google": {"address_components": [{"long_name": "Hispania", "short_name": "Hispania", "types": ["locality", "political"]}, {"long_name": "Hispania", "short_name": "Hispania", "types": ["administrative_area_level_2", "political"]}, {"long_name": "Antioquia", "short_name": "Antioquia", "types": ["administrative_area_level_1", "political"]}, {"long_name": "Colombia", "short_name": "CO", "types": ["country", "political"]}], "formatted_address": "Hispania, Antioquia, Colombia", "geometry": {"bounds": {"northeast": {"lat": 5.8021071, "lng": -75.9013749}, "southwest": {"lat": 5.7960119, "lng": -75.9146121}}, "location": {"lat": 5.799059, "lng": -75.90799299999999}, "location_type": "APPROXIMATE", "viewport": {"northeast": {"lat": 5.8021071, "lng": -75.9013749}, "southwest": {"lat": 5.7960119, "lng": -75.9146121}}}, "place_id": "ChIJhaTaNKlERo4RfGYtDl7xyYE", "types": ["locality", "political"]}}, {"code_country": 57, "country": "Colombia", "code_administrative_area_level_1": "5", "administrative_area_level_1": "Antioquia", "code_locality": "5360", "locality": "Itagui", "google": {"address_components": [{"long_name": "Itag\u00fc\u00ed", "short_name": "Itag\u00fc\u00ed", "types": ["locality", "political"]}, {"long_name": "Itag\u00fc\u00ed", "short_name": "Itag\u00fc\u00ed", "types": ["administrative_area_level_2", "political"]}, {"long_name": "Antioquia", "short_name": "Antioquia", "types": ["administrative_area_level_1", "political"]}, {"long_name": "Colombia", "short_name": "CO", "types": ["country", "political"]}], "formatted_address": "Itag\u00fc\u00ed, Antioquia, Colombia", "geometry": {"bounds": {"northeast": {"lat": 6.196856899999999, "lng": -75.5818039}, "southwest": {"lat": 6.153814, "lng": -75.646056}}, "location": {"lat": 6.1681832, "lng": -75.6190324}, "location_type": "APPROXIMATE", "viewport": {"northeast": {"lat": 6.196856899999999, "lng": -75.5818039}, "southwest": {"lat": 6.153814, "lng": -75.646056}}}, "place_id": "ChIJ1ZxeBy6CRo4RQj1cRMgc0m0", "types": ["locality", "political"]}}, {"code_country": 57, "country": "Colombia", "code_administrative_area_level_1": "5", "administrative_area_level_1": "Antioquia", "code_locality": "5361", "locality": "Ituango", "google": {"address_components": [{"long_name": "Ituango", "short_name": "Ituango", "types": ["locality", "political"]}, {"long_name": "Ituango", "short_name": "Ituango", "types": ["administrative_area_level_2", "political"]}, {"long_name": "Antioquia", "short_name": "Antioquia", "types": ["administrative_area_level_1", "political"]}, {"long_name": "Colombia", "short_name": "CO", "types": ["country", "political"]}], "formatted_address": "Ituango, Antioquia, Colombia", "geometry": {"bounds": {"northeast": {"lat": 7.179485100000001, "lng": -75.7612389}, "southwest": {"lat": 7.165729000000001, "lng": -75.7681209}}, "location": {"lat": 7.172606999999999, "lng": -75.76468}, "location_type": "APPROXIMATE", "viewport": {"northeast": {"lat": 7.179485100000001, "lng": -75.7612389}, "southwest": {"lat": 7.165729000000001, "lng": -75.7681209}}}, "place_id": "ChIJ6XxUsAEfRY4RlNmlnKKEu-4", "types": ["locality", "political"]}}, {"code_country": 57, "country": "Colombia", "code_administrative_area_level_1": "54", "administrative_area_level_1": "Norte de Santander", "code_locality": "54518", "locality": "Pamplona", "google": {"address_components": [{"long_name": "Pamplona", "short_name": "Pamplona", "types": ["locality", "political"]}, {"long_name": "Pamplona", "short_name": "Pamplona", "types": ["administrative_area_level_2", "political"]}, {"long_name": "North Santander", "short_name": "North Santander", "types": ["administrative_area_level_1", "political"]}, {"long_name": "Colombia", "short_name": "CO", "types": ["country", "political"]}], "formatted_address": "Pamplona, North Santander, Colombia", "geometry": {"bounds": {"northeast": {"lat": 7.389900000000001, "lng": -72.63516899999999}, "southwest": {"lat": 7.354059100000001, "lng": -72.665418}}, "location": {"lat": 7.378229999999999, "lng": -72.6503369}, "location_type": "APPROXIMATE", "viewport": {"northeast": {"lat": 7.389900000000001, "lng": -72.63516899999999}, "southwest": {"lat": 7.354059100000001, "lng": -72.665418}}}, "place_id": "ChIJFQyqIheBaI4R1Ld9j-mQt4M", "types": ["locality", "political"]}}, {"code_country": 57, "country": "Colombia", "code_administrative_area_level_1": "5", "administrative_area_level_1": "Antioquia", "code_locality": "5368", "locality": "Jeric\u00f3", "google": {"address_components": [{"long_name": "Jeric\u00f3", "short_name": "Jeric\u00f3", "types": ["locality", "political"]}, {"long_name": "Jeric\u00f3", "short_name": "Jeric\u00f3", "types": ["administrative_area_level_2", "political"]}, {"long_name": "Antioquia", "short_name": "Antioquia", "types": ["administrative_area_level_1", "political"]}, {"long_name": "Colombia", "short_name": "CO", "types": ["country", "political"]}], "formatted_address": "Jeric\u00f3, Antioquia, Colombia", "geometry": {"bounds": {"northeast": {"lat": 5.796347, "lng": -75.77427999999999}, "southwest": {"lat": 5.7846779, "lng": -75.7921871}}, "location": {"lat": 5.790513, "lng": -75.776082}, "location_type": "APPROXIMATE", "viewport": {"northeast": {"lat": 5.796347, "lng": -75.77427999999999}, "southwest": {"lat": 5.7846779, "lng": -75.7921871}}}, "place_id": "ChIJcQAO1EdZRo4R0PwcUYZIpMQ", "types": ["locality", "political"]}}, {"code_country": 57, "country": "Colombia", "code_administrative_area_level_1": "5", "administrative_area_level_1": "Antioquia", "code_locality": "5376", "locality": "La Ceja", "google": {"address_components": [{"long_name": "La Ceja", "short_name": "La Ceja", "types": ["locality", "political"]}, {"long_name": "La Ceja", "short_name": "La Ceja", "types": ["administrative_area_level_2", "political"]}, {"long_name": "Antioquia", "short_name": "Antioquia", "types": ["administrative_area_level_1", "political"]}, {"long_name": "Colombia", "short_name": "CO", "types": ["country", "political"]}], "formatted_address": "La Ceja, Antioquia, Colombia", "geometry": {"bounds": {"northeast": {"lat": 6.038021, "lng": -75.4190831}, "southwest": {"lat": 6.017243, "lng": -75.4441101}}, "location": {"lat": 6.027632, "lng": -75.431596}, "location_type": "APPROXIMATE", "viewport": {"northeast": {"lat": 6.038021, "lng": -75.4190831}, "southwest": {"lat": 6.017243, "lng": -75.4441101}}}, "place_id": "ChIJCZzP_1KXRo4RWOjEAADM3Qo", "types": ["locality", "political"]}}, {"code_country": 57, "country": "Colombia", "code_administrative_area_level_1": "5", "administrative_area_level_1": "Antioquia", "code_locality": "5380", "locality": "La Estrella", "google": {"address_components": [{"long_name": "La Estrella", "short_name": "La Estrella", "types": ["locality", "political"]}, {"long_name": "La Estrella", "short_name": "La Estrella", "types": ["administrative_area_level_2", "political"]}, {"long_name": "Antioquia", "short_name": "Antioquia", "types": ["administrative_area_level_1", "political"]}, {"long_name": "Colombia", "short_name": "CO", "types": ["country", "political"]}], "formatted_address": "La Estrella, Antioquia, Colombia", "geometry": {"bounds": {"northeast": {"lat": 6.1677349, "lng": -75.62361709999999}, "southwest": {"lat": 6.109765899999999, "lng": -75.656952}}, "location": {"lat": 6.151144899999999, "lng": -75.636623}, "location_type": "APPROXIMATE", "viewport": {"northeast": {"lat": 6.1677349, "lng": -75.62361709999999}, "southwest": {"lat": 6.109765899999999, "lng": -75.656952}}}, "place_id": "ChIJsV4OqXKBRo4RAHQvci4GbNs", "types": ["locality", "political"]}}, {"code_country": 57, "country": "Colombia", "code_administrative_area_level_1": "5", "administrative_area_level_1": "Antioquia", "code_locality": "5390", "locality": "La Pintada", "google": {"address_components": [{"long_name": "La Pintada", "short_name": "La Pintada", "types": ["locality", "political"]}, {"long_name": "La Pintada", "short_name": "La Pintada", "types": ["administrative_area_level_2", "political"]}, {"long_name": "Antioquia", "short_name": "Antioquia", "types": ["administrative_area_level_1", "political"]}, {"long_name": "Colombia", "short_name": "CO", "types": ["country", "political"]}], "formatted_address": "La Pintada, Antioquia, Colombia", "geometry": {"bounds": {"northeast": {"lat": 5.753755, "lng": -75.6001639}, "southwest": {"lat": 5.741620000000001, "lng": -75.609045}}, "location": {"lat": 5.746942, "lng": -75.606403}, "location_type": "APPROXIMATE", "viewport": {"northeast": {"lat": 5.753755, "lng": -75.6001639}, "southwest": {"lat": 5.741620000000001, "lng": -75.609045}}}, "place_id": "ChIJZagG-9rwRo4RgEFxeogtlZY", "types": ["locality", "political"]}}, {"code_country": 57, "country": "Colombia", "code_administrative_area_level_1": "5", "administrative_area_level_1": "Antioquia", "code_locality": "5400", "locality": "La Uni\u00f3n", "google": {"address_components": [{"long_name": "La Uni\u00f3n", "short_name": "La Uni\u00f3n", "types": ["locality", "political"]}, {"long_name": "La Uni\u00f3n", "short_name": "La Uni\u00f3n", "types": ["administrative_area_level_2", "political"]}, {"long_name": "Antioquia", "short_name": "Antioquia", "types": ["administrative_area_level_1", "political"]}, {"long_name": "Colombia", "short_name": "CO", "types": ["country", "political"]}], "formatted_address": "La Uni\u00f3n, Antioquia, Colombia", "geometry": {"bounds": {"northeast": {"lat": 5.9789921, "lng": -75.35716690000001}, "southwest": {"lat": 5.9673769, "lng": -75.36623809999999}}, "location": {"lat": 5.973839, "lng": -75.3609759}, "location_type": "APPROXIMATE", "viewport": {"northeast": {"lat": 5.9789921, "lng": -75.35716690000001}, "southwest": {"lat": 5.9673769, "lng": -75.36623809999999}}}, "place_id": "ChIJrxOsmBWWRo4RTH0dDJsPp34", "types": ["locality", "political"]}}, {"code_country": 57, "country": "Colombia", "code_administrative_area_level_1": "5", "administrative_area_level_1": "Antioquia", "code_locality": "5411", "locality": "Liborina", "google": {"address_components": [{"long_name": "Liborina", "short_name": "Liborina", "types": ["locality", "political"]}, {"long_name": "Liborina", "short_name": "Liborina", "types": ["administrative_area_level_2", "political"]}, {"long_name": "Antioquia", "short_name": "Antioquia", "types": ["administrative_area_level_1", "political"]}, {"long_name": "Colombia", "short_name": "CO", "types": ["country", "political"]}], "formatted_address": "Liborina, Antioquia, Colombia", "geometry": {"bounds": {"northeast": {"lat": 6.681464, "lng": -75.8078529}, "southwest": {"lat": 6.6734369, "lng": -75.815635}}, "location": {"lat": 6.677449999999999, "lng": -75.81174399999999}, "location_type": "APPROXIMATE", "viewport": {"northeast": {"lat": 6.681464, "lng": -75.8078529}, "southwest": {"lat": 6.6734369, "lng": -75.815635}}}, "place_id": "ChIJ_yljioaxRY4REgDughC-JaE", "types": ["locality", "political"]}}, {"code_country": 57, "country": "Colombia", "code_administrative_area_level_1": "5", "administrative_area_level_1": "Antioquia", "code_locality": "5425", "locality": "Maceo", "google": {"address_components": [{"long_name": "Maceo", "short_name": "Maceo", "types": ["locality", "political"]}, {"long_name": "Maceo", "short_name": "Maceo", "types": ["administrative_area_level_2", "political"]}, {"long_name": "Antioquia", "short_name": "Antioquia", "types": ["administrative_area_level_1", "political"]}, {"long_name": "Colombia", "short_name": "CO", "types": ["country", "political"]}], "formatted_address": "Maceo, Antioquia, Colombia", "geometry": {"bounds": {"northeast": {"lat": 6.559632, "lng": -74.783152}, "southwest": {"lat": 6.5431031, "lng": -74.79143599999999}}, "location": {"lat": 6.551367, "lng": -74.787294}, "location_type": "APPROXIMATE", "viewport": {"northeast": {"lat": 6.559632, "lng": -74.783152}, "southwest": {"lat": 6.5431031, "lng": -74.79143599999999}}}, "place_id": "ChIJCV4IWXmNQ44Rr_YYE4gdjWQ", "types": ["locality", "political"]}}, {"code_country": 57, "country": "Colombia", "code_administrative_area_level_1": "5", "administrative_area_level_1": "Antioquia", "code_locality": "5440", "locality": "Marinilla", "google": {"address_components": [{"long_name": "Marinilla", "short_name": "Marinilla", "types": ["locality", "political"]}, {"long_name": "Marinilla", "short_name": "Marinilla", "types": ["administrative_area_level_2", "political"]}, {"long_name": "Antioquia", "short_name": "Antioquia", "types": ["administrative_area_level_1", "political"]}, {"long_name": "Colombia", "short_name": "CO", "types": ["country", "political"]}], "formatted_address": "Marinilla, Antioquia, Colombia", "geometry": {"bounds": {"northeast": {"lat": 6.181960699999999, "lng": -75.3247244}, "southwest": {"lat": 6.165444, "lng": -75.350302}}, "location": {"lat": 6.1730864, "lng": -75.3393102}, "location_type": "APPROXIMATE", "viewport": {"northeast": {"lat": 6.181960699999999, "lng": -75.3247244}, "southwest": {"lat": 6.165444, "lng": -75.350302}}}, "place_id": "ChIJOfSZGSSgRo4R4lc07teRUEg", "types": ["locality", "political"]}}, {"code_country": 57, "country": "Colombia", "code_administrative_area_level_1": "5", "administrative_area_level_1": "Antioquia", "code_locality": "5467", "locality": "Montebello", "google": {"address_components": [{"long_name": "Montebello", "short_name": "Montebello", "types": ["locality", "political"]}, {"long_name": "Montebello", "short_name": "Montebello", "types": ["administrative_area_level_2", "political"]}, {"long_name": "Antioquia", "short_name": "Antioquia", "types": ["administrative_area_level_1", "political"]}, {"long_name": "Colombia", "short_name": "CO", "types": ["country", "political"]}], "formatted_address": "Montebello, Antioquia, Colombia", "geometry": {"bounds": {"northeast": {"lat": 5.950154899999999, "lng": -75.521684}, "southwest": {"lat": 5.942819, "lng": -75.52621610000001}}, "location": {"lat": 5.946486999999999, "lng": -75.52395}, "location_type": "APPROXIMATE", "viewport": {"northeast": {"lat": 5.950154899999999, "lng": -75.521684}, "southwest": {"lat": 5.942819, "lng": -75.52621610000001}}}, "place_id": "ChIJpTR3BQmSRo4RLieJm1TEGAA", "types": ["locality", "political"]}}, {"code_country": 57, "country": "Colombia", "code_administrative_area_level_1": "5", "administrative_area_level_1": "Antioquia", "code_locality": "5475", "locality": "Murind\u00f3", "google": {"address_components": [{"long_name": "Murind\u00f3", "short_name": "Murind\u00f3", "types": ["locality", "political"]}, {"long_name": "Murind\u00f3", "short_name": "Murind\u00f3", "types": ["administrative_area_level_2", "political"]}, {"long_name": "Antioquia", "short_name": "Antioquia", "types": ["administrative_area_level_1", "political"]}, {"long_name": "Colombia", "short_name": "CO", "types": ["country", "political"]}, {"long_name": "056817", "short_name": "056817", "types": ["postal_code"]}], "formatted_address": "Murind\u00f3, Antioquia, Colombia", "geometry": {"location": {"lat": 6.981039999999999, "lng": -76.82119}, "location_type": "APPROXIMATE", "viewport": {"northeast": {"lat": 6.992115099999999, "lng": -76.8051826}, "southwest": {"lat": 6.969964600000001, "lng": -76.8371974}}}, "place_id": "ChIJv7P041mfT44RpNJEdcn3VnI", "types": ["locality", "political"]}}, {"code_country": 57, "country": "Colombia", "code_administrative_area_level_1": "5", "administrative_area_level_1": "Antioquia", "code_locality": "5480", "locality": "Mutat\u00e1", "google": {"address_components": [{"long_name": "Mutat\u00e1", "short_name": "Mutat\u00e1", "types": ["locality", "political"]}, {"long_name": "Mutat\u00e1", "short_name": "Mutat\u00e1", "types": ["administrative_area_level_2", "political"]}, {"long_name": "Antioquia", "short_name": "Antioquia", "types": ["administrative_area_level_1", "political"]}, {"long_name": "Colombia", "short_name": "CO", "types": ["country", "political"]}], "formatted_address": "Mutat\u00e1, Antioquia, Colombia", "geometry": {"bounds": {"northeast": {"lat": 7.2499719, "lng": -76.431642}, "southwest": {"lat": 7.238239999999999, "lng": -76.441492}}, "location": {"lat": 7.244105999999999, "lng": -76.43656700000001}, "location_type": "APPROXIMATE", "viewport": {"northeast": {"lat": 7.2499719, "lng": -76.431642}, "southwest": {"lat": 7.238239999999999, "lng": -76.441492}}}, "place_id": "ChIJA42uOulfRY4RKLBM--Ny2wM", "types": ["locality", "political"]}}, {"code_country": 57, "country": "Colombia", "code_administrative_area_level_1": "5", "administrative_area_level_1": "Antioquia", "code_locality": "5483", "locality": "Nari\u00f1o", "google": {"address_components": [{"long_name": "Nari\u00f1o", "short_name": "Nari\u00f1o", "types": ["locality", "political"]}, {"long_name": "Nari\u00f1o", "short_name": "Nari\u00f1o", "types": ["administrative_area_level_2", "political"]}, {"long_name": "Antioquia", "short_name": "Antioquia", "types": ["administrative_area_level_1", "political"]}, {"long_name": "Colombia", "short_name": "CO", "types": ["country", "political"]}], "formatted_address": "Nari\u00f1o, Antioquia, Colombia", "geometry": {"bounds": {"northeast": {"lat": 5.615912, "lng": -75.1694541}, "southwest": {"lat": 5.606117900000001, "lng": -75.17887}}, "location": {"lat": 5.611015, "lng": -75.174162}, "location_type": "APPROXIMATE", "viewport": {"northeast": {"lat": 5.615912, "lng": -75.1694541}, "southwest": {"lat": 5.606117900000001, "lng": -75.17887}}}, "place_id": "ChIJ4XmAHu3ZRo4RSDBKxKU-i2I", "types": ["locality", "political"]}}, {"code_country": 57, "country": "Colombia", "code_administrative_area_level_1": "5", "administrative_area_level_1": "Antioquia", "code_locality": "5490", "locality": "Necocl\u00ed", "google": {"address_components": [{"long_name": "Necocl\u00ed", "short_name": "Necocl\u00ed", "types": ["locality", "political"]}, {"long_name": "Necocl\u00ed", "short_name": "Necocl\u00ed", "types": ["administrative_area_level_2", "political"]}, {"long_name": "Antioquia", "short_name": "Antioquia", "types": ["administrative_area_level_1", "political"]}, {"long_name": "Colombia", "short_name": "CO", "types": ["country", "political"]}], "formatted_address": "Necocl\u00ed, Antioquia, Colombia", "geometry": {"bounds": {"northeast": {"lat": 8.434721999999999, "lng": -76.772762}, "southwest": {"lat": 8.4196271, "lng": -76.796162}}, "location": {"lat": 8.427173999999999, "lng": -76.787678}, "location_type": "APPROXIMATE", "viewport": {"northeast": {"lat": 8.434721999999999, "lng": -76.772762}, "southwest": {"lat": 8.4196271, "lng": -76.796162}}}, "place_id": "ChIJ1Z-QEnqNUI4RFhUhq3rhTCs", "types": ["locality", "political"]}}, {"code_country": 57, "country": "Colombia", "code_administrative_area_level_1": "5", "administrative_area_level_1": "Antioquia", "code_locality": "5495", "locality": "Nech\u00ed", "google": {"address_components": [{"long_name": "Nech\u00ed", "short_name": "Nech\u00ed", "types": ["locality", "political"]}, {"long_name": "Nech\u00ed", "short_name": "Nech\u00ed", "types": ["administrative_area_level_2", "political"]}, {"long_name": "Antioquia", "short_name": "Antioquia", "types": ["administrative_area_level_1", "political"]}, {"long_name": "Colombia", "short_name": "CO", "types": ["country", "political"]}, {"long_name": "052420", "short_name": "052420", "types": ["postal_code"]}], "formatted_address": "Nech\u00ed, Antioquia, Colombia", "geometry": {"bounds": {"northeast": {"lat": 8.1025689, "lng": -74.7709761}, "southwest": {"lat": 8.0742701, "lng": -74.7816781}}, "location": {"lat": 8.088419, "lng": -74.776327}, "location_type": "APPROXIMATE", "viewport": {"northeast": {"lat": 8.1025689, "lng": -74.7709761}, "southwest": {"lat": 8.0742701, "lng": -74.7816781}}}, "place_id": "ChIJz_uo616PXI4ReL8-4EKlxnM", "types": ["locality", "political"]}}, {"code_country": 57, "country": "Colombia", "code_administrative_area_level_1": "5", "administrative_area_level_1": "Antioquia", "code_locality": "5501", "locality": "Olaya", "google": {"address_components": [{"long_name": "Olaya", "short_name": "Olaya", "types": ["locality", "political"]}, {"long_name": "Olaya", "short_name": "Olaya", "types": ["administrative_area_level_2", "political"]}, {"long_name": "Antioquia", "short_name": "Antioquia", "types": ["administrative_area_level_1", "political"]}, {"long_name": "Colombia", "short_name": "CO", "types": ["country", "political"]}], "formatted_address": "Olaya, Antioquia, Colombia", "geometry": {"bounds": {"northeast": {"lat": 6.6289199, "lng": -75.8111031}, "southwest": {"lat": 6.625001999999999, "lng": -75.8137279}}, "location": {"lat": 6.626961, "lng": -75.81269999999999}, "location_type": "APPROXIMATE", "viewport": {"northeast": {"lat": 6.6289199, "lng": -75.81106651970849}, "southwest": {"lat": 6.625001999999999, "lng": -75.81376448029151}}}, "place_id": "ChIJrYU4Yau2RY4R4zkDuVXemYc", "types": ["locality", "political"]}}, {"code_country": 57, "country": "Colombia", "code_administrative_area_level_1": "5", "administrative_area_level_1": "Antioquia", "code_locality": "5541", "locality": "Pe\u00f1ol", "google": {"address_components": [{"long_name": "El Pe\u00f1ol", "short_name": "El Pe\u00f1ol", "types": ["locality", "political"]}, {"long_name": "Pe\u00f1ol", "short_name": "Pe\u00f1ol", "types": ["administrative_area_level_2", "political"]}, {"long_name": "Antioquia", "short_name": "Antioquia", "types": ["administrative_area_level_1", "political"]}, {"long_name": "Colombia", "short_name": "CO", "types": ["country", "political"]}, {"long_name": "053857", "short_name": "053857", "types": ["postal_code"]}], "formatted_address": "El Pe\u00f1ol, Pe\u00f1ol, Antioquia, Colombia", "geometry": {"bounds": {"northeast": {"lat": 6.225740999999999, "lng": -75.2357789}, "southwest": {"lat": 6.211942, "lng": -75.250611}}, "location": {"lat": 6.2199662, "lng": -75.2435307}, "location_type": "APPROXIMATE", "viewport": {"northeast": {"lat": 6.225740999999999, "lng": -75.2357789}, "southwest": {"lat": 6.211942, "lng": -75.250611}}}, "place_id": "ChIJBRMhx-AdRI4RKgY4Mh7FuS0", "types": ["locality", "political"]}}, {"code_country": 57, "country": "Colombia", "code_administrative_area_level_1": "5", "administrative_area_level_1": "Antioquia", "code_locality": "5543", "locality": "Peque", "google": {"address_components": [{"long_name": "Peque", "short_name": "Peque", "types": ["locality", "political"]}, {"long_name": "Peque", "short_name": "Peque", "types": ["administrative_area_level_2", "political"]}, {"long_name": "Antioquia", "short_name": "Antioquia", "types": ["administrative_area_level_1", "political"]}, {"long_name": "Colombia", "short_name": "CO", "types": ["country", "political"]}], "formatted_address": "Peque, Antioquia, Colombia", "geometry": {"bounds": {"northeast": {"lat": 7.024083099999999, "lng": -75.905456}, "southwest": {"lat": 7.018987, "lng": -75.91075909999999}}, "location": {"lat": 7.021535, "lng": -75.908107}, "location_type": "APPROXIMATE", "viewport": {"northeast": {"lat": 7.024083099999999, "lng": -75.905456}, "southwest": {"lat": 7.018987, "lng": -75.91075909999999}}}, "place_id": "ChIJ_VKxRI4PRY4RPNx9M9Wo_oQ", "types": ["locality", "political"]}}, {"code_country": 57, "country": "Colombia", "code_administrative_area_level_1": "5", "administrative_area_level_1": "Antioquia", "code_locality": "5576", "locality": "Pueblorrico", "google": {"address_components": [{"long_name": "Pueblorrico", "short_name": "Pueblorrico", "types": ["locality", "political"]}, {"long_name": "Pueblorrico", "short_name": "Pueblorrico", "types": ["administrative_area_level_2", "political"]}, {"long_name": "Antioquia", "short_name": "Antioquia", "types": ["administrative_area_level_1", "political"]}, {"long_name": "Colombia", "short_name": "CO", "types": ["country", "political"]}], "formatted_address": "Pueblorrico, Antioquia, Colombia", "geometry": {"bounds": {"northeast": {"lat": 5.800865, "lng": -75.83358609999999}, "southwest": {"lat": 5.787457100000001, "lng": -75.8475931}}, "location": {"lat": 5.794161, "lng": -75.840589}, "location_type": "APPROXIMATE", "viewport": {"northeast": {"lat": 5.800865, "lng": -75.83358609999999}, "southwest": {"lat": 5.787457100000001, "lng": -75.8475931}}}, "place_id": "ChIJUaPihppbRo4RhusA_-dxHJQ", "types": ["locality", "political"]}}, {"code_country": 57, "country": "Colombia", "code_administrative_area_level_1": "5", "administrative_area_level_1": "Antioquia", "code_locality": "5579", "locality": "Puerto Berr\u00edo", "google": {"address_components": [{"long_name": "Puerto Berr\u00edo", "short_name": "Puerto Berr\u00edo", "types": ["locality", "political"]}, {"long_name": "Puerto Berr\u00edo", "short_name": "Puerto Berr\u00edo", "types": ["administrative_area_level_2", "political"]}, {"long_name": "Antioquia", "short_name": "Antioquia", "types": ["administrative_area_level_1", "political"]}, {"long_name": "Colombia", "short_name": "CO", "types": ["country", "political"]}], "formatted_address": "Puerto Berr\u00edo, Antioquia, Colombia", "geometry": {"bounds": {"northeast": {"lat": 6.498584999999999, "lng": -74.398515}, "southwest": {"lat": 6.456924, "lng": -74.4190849}}, "location": {"lat": 6.477754999999999, "lng": -74.4088}, "location_type": "APPROXIMATE", "viewport": {"northeast": {"lat": 6.498584999999999, "lng": -74.398515}, "southwest": {"lat": 6.456924, "lng": -74.4190849}}}, "place_id": "ChIJXy4GEQnIQ44RWGrBDx9JMJY", "types": ["locality", "political"]}}, {"code_country": 57, "country": "Colombia", "code_administrative_area_level_1": "5", "administrative_area_level_1": "Antioquia", "code_locality": "5585", "locality": "Puerto Nare", "google": {"address_components": [{"long_name": "Puerto Nare", "short_name": "Puerto Nare", "types": ["locality", "political"]}, {"long_name": "Puerto Nare", "short_name": "Puerto Nare", "types": ["administrative_area_level_2", "political"]}, {"long_name": "Antioquia", "short_name": "Antioquia", "types": ["administrative_area_level_1", "political"]}, {"long_name": "Colombia", "short_name": "CO", "types": ["country", "political"]}], "formatted_address": "Puerto Nare, Antioquia, Colombia", "geometry": {"bounds": {"northeast": {"lat": 6.192275, "lng": -74.580964}, "southwest": {"lat": 6.180719, "lng": -74.586489}}, "location": {"lat": 6.186497, "lng": -74.583726}, "location_type": "APPROXIMATE", "viewport": {"northeast": {"lat": 6.192275, "lng": -74.580964}, "southwest": {"lat": 6.180719, "lng": -74.586489}}}, "place_id": "ChIJU5-8-PrfQ44RLjPjYds1-Wo", "types": ["locality", "political"]}}, {"code_country": 57, "country": "Colombia", "code_administrative_area_level_1": "5", "administrative_area_level_1": "Antioquia", "code_locality": "5591", "locality": "Puerto Triunfo", "google": {"address_components": [{"long_name": "Puerto Triunfo", "short_name": "Puerto Triunfo", "types": ["locality", "political"]}, {"long_name": "Puerto Triunfo", "short_name": "Puerto Triunfo", "types": ["administrative_area_level_2", "political"]}, {"long_name": "Antioquia", "short_name": "Antioquia", "types": ["administrative_area_level_1", "political"]}, {"long_name": "Colombia", "short_name": "CO", "types": ["country", "political"]}, {"long_name": "053440", "short_name": "053440", "types": ["postal_code"]}], "formatted_address": "Puerto Triunfo, Antioquia, Colombia", "geometry": {"bounds": {"northeast": {"lat": 5.90346, "lng": -74.6115149}, "southwest": {"lat": 5.857940000000001, "lng": -74.6565569}}, "location": {"lat": 5.8807, "lng": -74.634036}, "location_type": "APPROXIMATE", "viewport": {"northeast": {"lat": 5.90346, "lng": -74.6115149}, "southwest": {"lat": 5.857940000000001, "lng": -74.6565569}}}, "place_id": "ChIJvVFMVPVAQY4RfCOxH4G4hbg", "types": ["locality", "political"]}}, {"code_country": 57, "country": "Colombia", "code_administrative_area_level_1": "5", "administrative_area_level_1": "Antioquia", "code_locality": "5604", "locality": "Remedios", "google": {"address_components": [{"long_name": "Remedios", "short_name": "Remedios", "types": ["locality", "political"]}, {"long_name": "Remedios", "short_name": "Remedios", "types": ["administrative_area_level_2", "political"]}, {"long_name": "Antioquia", "short_name": "Antioquia", "types": ["administrative_area_level_1", "political"]}, {"long_name": "Colombia", "short_name": "CO", "types": ["country", "political"]}], "formatted_address": "Remedios, Antioquia, Colombia", "geometry": {"bounds": {"northeast": {"lat": 7.032725999999999, "lng": -74.68634209999999}, "southwest": {"lat": 7.022806999999999, "lng": -74.69958679999999}}, "location": {"lat": 7.027766, "lng": -74.692965}, "location_type": "APPROXIMATE", "viewport": {"northeast": {"lat": 7.032725999999999, "lng": -74.68634209999999}, "southwest": {"lat": 7.022806999999999, "lng": -74.69958679999999}}}, "place_id": "ChIJwQfaeQxuQ44RDcgy6dLkBaM", "types": ["locality", "political"]}}, {"code_country": 57, "country": "Colombia", "code_administrative_area_level_1": "5", "administrative_area_level_1": "Antioquia", "code_locality": "5607", "locality": "Retiro", "google": {"address_components": [{"long_name": "Retiro", "short_name": "Retiro", "types": ["locality", "political"]}, {"long_name": "Retiro", "short_name": "Retiro", "types": ["administrative_area_level_2", "political"]}, {"long_name": "Antioquia", "short_name": "Antioquia", "types": ["administrative_area_level_1", "political"]}, {"long_name": "Colombia", "short_name": "CO", "types": ["country", "political"]}], "formatted_address": "Retiro, Antioquia, Colombia", "geometry": {"bounds": {"northeast": {"lat": 6.069238, "lng": -75.496147}, "southwest": {"lat": 6.052671, "lng": -75.5090179}}, "location": {"lat": 6.060955, "lng": -75.50258199999999}, "location_type": "APPROXIMATE", "viewport": {"northeast": {"lat": 6.069238, "lng": -75.496147}, "southwest": {"lat": 6.052671, "lng": -75.5090179}}}, "place_id": "ChIJW4cBi9iaRo4RsP9ZzScU-_Y", "types": ["locality", "political"]}}, {"code_country": 57, "country": "Colombia", "code_administrative_area_level_1": "5", "administrative_area_level_1": "Antioquia", "code_locality": "5615", "locality": "Rionegro", "google": {"address_components": [{"long_name": "Rionegro", "short_name": "Rionegro", "types": ["locality", "political"]}, {"long_name": "Rionegro", "short_name": "Rionegro", "types": ["administrative_area_level_2", "political"]}, {"long_name": "Antioquia", "short_name": "Antioquia", "types": ["administrative_area_level_1", "political"]}, {"long_name": "Colombia", "short_name": "CO", "types": ["country", "political"]}], "formatted_address": "Rionegro, Antioquia, Colombia", "geometry": {"bounds": {"northeast": {"lat": 6.167242900000001, "lng": -75.3514125}, "southwest": {"lat": 6.122430899999999, "lng": -75.3968235}}, "location": {"lat": 6.149018799999999, "lng": -75.3789523}, "location_type": "APPROXIMATE", "viewport": {"northeast": {"lat": 6.167242900000001, "lng": -75.3514125}, "southwest": {"lat": 6.122430899999999, "lng": -75.3968235}}}, "place_id": "ChIJyWvCEA-fRo4RxhawUvN9KXY", "types": ["locality", "political"]}}, {"code_country": 57, "country": "Colombia", "code_administrative_area_level_1": "5", "administrative_area_level_1": "Antioquia", "code_locality": "5628", "locality": "Sabanalarga", "google": {
         "address_components" : [
            {
               "long_name" : "Sabanalarga",
               "short_name" : "Sabanalarga",
               "types" : [ "locality", "political" ]
            },
            {
               "long_name" : "Sabanalarga",
               "short_name" : "Sabanalarga",
               "types" : [ "administrative_area_level_2", "political" ]
            },
            {
               "long_name" : "Antioquia",
               "short_name" : "Antioquia",
               "types" : [ "administrative_area_level_1", "political" ]
            },
            {
               "long_name" : "Colombia",
               "short_name" : "CO",
               "types" : [ "country", "political" ]
            },
            {
               "long_name" : "057028",
               "short_name" : "057028",
               "types" : [ "postal_code" ]
            }
         ],
         "formatted_address" : "Sabanalarga, Antioquia, Colombia",
         "geometry" : {
            "location" : {
               "lat" : 6.849696199999999,
               "lng" : -75.8180567
            },
            "location_type" : "APPROXIMATE",
            "viewport" : {
               "northeast" : {
                  "lat" : 6.860774399999999,
                  "lng" : -75.80204929999999
               },
               "southwest" : {
                  "lat" : 6.838617699999999,
                  "lng" : -75.83406409999999
               }
            }
         },
         "place_id" : "ChIJq_hE0Y-pRY4RFL7kFLhJWm0",
         "types" : [ "locality", "political" ]
      }}, {"code_country": 57, "country": "Colombia", "code_administrative_area_level_1": "5", "administrative_area_level_1": "Antioquia", "code_locality": "5631", "locality": "Sabaneta", "google": {"address_components": [{"long_name": "Sabaneta", "short_name": "Sabaneta", "types": ["locality", "political"]}, {"long_name": "Sabaneta", "short_name": "Sabaneta", "types": ["administrative_area_level_2", "political"]}, {"long_name": "Antioquia", "short_name": "Antioquia", "types": ["administrative_area_level_1", "political"]}, {"long_name": "Colombia", "short_name": "CO", "types": ["country", "political"]}], "formatted_address": "Sabaneta, Antioquia, Colombia", "geometry": {"bounds": {"northeast": {"lat": 6.1627119, "lng": -75.602642}, "southwest": {"lat": 6.140527700000001, "lng": -75.63099799999999}}, "location": {"lat": 6.150558999999999, "lng": -75.61681999999999}, "location_type": "APPROXIMATE", "viewport": {"northeast": {"lat": 6.1627119, "lng": -75.602642}, "southwest": {"lat": 6.140527700000001, "lng": -75.63099799999999}}}, "place_id": "ChIJE-IVrN6DRo4RjO2Xv2tq1tc", "types": ["locality", "political"]}}, {"code_country": 57, "country": "Colombia", "code_administrative_area_level_1": "5", "administrative_area_level_1": "Antioquia", "code_locality": "5642", "locality": "Salgar", "google": {"address_components": [{"long_name": "Salgar", "short_name": "Salgar", "types": ["locality", "political"]}, {"long_name": "Salgar", "short_name": "Salgar", "types": ["administrative_area_level_2", "political"]}, {"long_name": "Antioquia", "short_name": "Antioquia", "types": ["administrative_area_level_1", "political"]}, {"long_name": "Colombia", "short_name": "CO", "types": ["country", "political"]}], "formatted_address": "Salgar, Antioquia, Colombia", "geometry": {"bounds": {"northeast": {"lat": 5.9667679, "lng": -75.963639}, "southwest": {"lat": 5.959904, "lng": -75.98725400000001}}, "location": {"lat": 5.963336, "lng": -75.963942}, "location_type": "APPROXIMATE", "viewport": {"northeast": {"lat": 5.9667679, "lng": -75.963639}, "southwest": {"lat": 5.959904, "lng": -75.98725400000001}}}, "place_id": "ChIJq0QcUk5pRo4RAJVlSANziNo", "types": ["locality", "political"]}}, {"code_country": 57, "country": "Colombia", "code_administrative_area_level_1": "25", "administrative_area_level_1": "Cundinamarca", "code_locality": "25019", "locality": "Alb\u00e1n", "google": {"address_components": [{"long_name": "Alb\u00e1n", "short_name": "Alb\u00e1n", "types": ["locality", "political"]}, {"long_name": "Alb\u00e1n", "short_name": "Alb\u00e1n", "types": ["administrative_area_level_2", "political"]}, {"long_name": "Cundinamarca", "short_name": "Cundinamarca", "types": ["administrative_area_level_1", "political"]}, {"long_name": "Colombia", "short_name": "CO", "types": ["country", "political"]}], "formatted_address": "Alb\u00e1n, Cundinamarca, Colombia", "geometry": {"bounds": {"northeast": {"lat": 4.882864000000001, "lng": -74.43531399999999}, "southwest": {"lat": 4.874219, "lng": -74.441423}}, "location": {"lat": 4.876247999999999, "lng": -74.437772}, "location_type": "APPROXIMATE", "viewport": {"northeast": {"lat": 4.882864000000001, "lng": -74.43531399999999}, "southwest": {"lat": 4.874219, "lng": -74.441423}}}, "place_id": "ChIJrVNIWmKdQI4Rrpt9Xv_KGNo", "types": ["locality", "political"]}}, {"code_country": 57, "country": "Colombia", "code_administrative_area_level_1": "97", "administrative_area_level_1": "Vaup\u00e9s", "code_locality": "97889", "locality": "Yavarat\u00e9", "google": {"address_components": [{"long_name": "Yavarat\u00e9", "short_name": "Yavarat\u00e9", "types": ["locality", "political"]}, {"long_name": "Yavarat\u00e9", "short_name": "Yavarat\u00e9", "types": ["administrative_area_level_2", "political"]}, {"long_name": "Vaupes", "short_name": "Vaupes", "types": ["administrative_area_level_1", "political"]}, {"long_name": "Colombia", "short_name": "CO", "types": ["country", "political"]}, {"long_name": "971008", "short_name": "971008", "types": ["postal_code"]}], "formatted_address": "Yavarat\u00e9, Vaupes, Colombia", "geometry": {"location": {"lat": 0.6150599999999999, "lng": -69.2080299}, "location_type": "APPROXIMATE", "viewport": {"northeast": {"lat": 0.6262173, "lng": -69.1920225}, "southwest": {"lat": 0.6039026, "lng": -69.22403729999999}}}, "place_id": "ChIJU0cqLpPLA44RmiTDqf2IRN0", "types": ["locality", "political"]}}, {"code_country": 57, "country": "Colombia", "code_administrative_area_level_1": "5", "administrative_area_level_1": "Antioquia", "code_locality": "5652", "locality": "San Francisco", "google": {"address_components": [{"long_name": "V\u00eda a San Francisco", "short_name": "V\u00eda a San Francisco", "types": ["route"]}, {"long_name": "Antioquia", "short_name": "Antioquia", "types": ["administrative_area_level_1", "political"]}, {"long_name": "Colombia", "short_name": "CO", "types": ["country", "political"]}], "formatted_address": "V\u00eda a San Francisco, Antioquia, Colombia", "geometry": {"bounds": {"northeast": {"lat": 6.0152171, "lng": -75.1019942},